time,.header.seq,.header.stamp.secs,.header.stamp.nsecs,.header.frame_id,.pose.position.x,.pose.position.y,.pose.position.z,.pose.orientation.x,.pose.orientation.y,.pose.orientation.z,.pose.orientation.w
2023/04/21/09:36:34.339724,3707,1682087793,934607365,map,18.053308486938477,-7.197246551513672,81.23826599121094,-0.015831704341299723,-0.02284087934807626,0.9246595408931101,0.37977951996026876
2023/04/21/09:36:34.339748,3708,1682087793,942123253,map,17.803966522216797,-6.930326461791992,81.24317932128906,-0.013547980812095593,-0.018317428495793445,0.9258588926877603,0.3771819886131181
2023/04/21/09:36:34.434017,3709,1682087794,36736393,map,17.628408432006836,-6.742449760437012,81.2460708618164,-0.010207142952477192,-0.012411324183284625,0.9269815161446965,0.3747627595085927
2023/04/21/09:36:34.434039,3710,1682087794,39588363,map,17.434703826904297,-6.531905651092529,81.2498550415039,-0.007422596201475113,-0.008663237172732678,0.9276608811958437,0.37324956120650615
2023/04/21/09:36:34.434064,3711,1682087794,41782935,map,17.196882247924805,-6.273307800292969,81.2542953491211,-0.006494195753394107,-0.006856502081631023,0.9280500651949932,0.3723357332370929
2023/04/21/09:36:34.434092,3712,1682087794,44634442,map,17.01962661743164,-6.08050537109375,81.2576675415039,-0.00681537214931755,-0.007331272871102862,0.9285093183297922,0.3711743978997995
2023/04/21/09:36:34.935453,3713,1682087794,137547057,map,16.770429611206055,-5.809395790100098,81.26248168945312,-0.00866485657483684,-0.009985804826255181,0.9287065445073989,0.37057989552812903
2023/04/21/09:36:34.935489,3714,1682087794,139874537,map,16.594985961914062,-5.618363380432129,81.26545715332031,-0.009921982643808547,-0.011330597327946312,0.9287300203020195,0.3704508840248372
2023/04/21/09:36:34.935501,3715,1682087794,145625902,map,16.417415618896484,-5.425226211547852,81.26821899414062,-0.012736782229803812,-0.014705020298927323,0.9284912162583567,0.3708444512962319
2023/04/21/09:36:34.935706,3716,1682087794,148797010,map,16.22483253479004,-5.212838172912598,81.26936340332031,-0.015053309260357637,-0.01767007290595554,0.9282737174466162,0.37117254343846506
2023/04/21/09:36:34.935722,3717,1682087794,335589559,map,15.988188743591309,-4.951961040496826,81.27001190185547,-0.016883054678589814,-0.02077047353153142,0.927966066525911,0.37170213966342863
2023/04/21/09:36:34.935810,3718,1682087794,344962854,map,15.797260284423828,-4.74216890335083,81.27017211914062,-0.019755324373661905,-0.026861661037146215,0.9272456504443143,0.37296616579711883
2023/04/21/09:36:34.935899,3719,1682087794,345980230,map,15.56265926361084,-4.484569072723389,81.26898956298828,-0.025425945106235318,-0.03780762499081108,0.9258724007527082,0.3750790926800913
2023/04/21/09:36:34.935914,3720,1682087794,346463843,map,15.387277603149414,-4.292465686798096,81.26722717285156,-0.027952218644899704,-0.04403170101587234,0.9249349494747046,0.37653048262883665
2023/04/21/09:36:35.434432,3721,1682087794,439484866,map,15.196982383728027,-4.083950519561768,81.2644271850586,-0.033228264532981173,-0.05695589711011386,0.9230391631552604,0.37901270019846156
2023/04/21/09:36:35.434444,3722,1682087794,540221657,map,14.164454460144043,-2.9642045497894287,81.23357391357422,-0.046926664648597904,-0.11201138755251536,0.9127392741693194,0.3900747727928732
2023/04/21/09:36:35.434457,3723,1682087794,543691149,map,13.98733139038086,-2.77716326713562,81.22750854492188,-0.04573750975710926,-0.11726324575936314,0.9116734857376002,0.39116357340387947
2023/04/21/09:36:35.434473,3724,1682087794,545637507,map,13.803037643432617,-2.5853683948516846,81.22200012207031,-0.04431716359647015,-0.1189673350408897,0.9114375055327878,0.3913622957946083
2023/04/21/09:36:35.434484,3725,1682087794,735090584,map,13.542932510375977,-2.3181560039520264,81.2151107788086,-0.04211651595085643,-0.11865420766405604,0.9119308133211834,0.3905504421251672
2023/04/21/09:36:35.434497,3726,1682087794,739388626,map,13.35902214050293,-2.131330728530884,81.21035766601562,-0.038665850730326294,-0.11531665931657308,0.9136011772213672,0.38799491011255766
2023/04/21/09:36:35.434509,3727,1682087794,746398108,map,13.113775253295898,-1.8854796886444092,81.20524597167969,-0.036949905013478015,-0.11227392027188973,0.915714883821037,0.38405169311272697
2023/04/21/09:36:35.434520,3728,1682087794,835954757,map,12.914624214172363,-1.689010739326477,81.20254516601562,-0.036515334126838245,-0.11084247105084602,0.9169037831972566,0.3816650645955248
2023/04/21/09:36:35.434531,3729,1682087794,840116052,map,12.730225563049316,-1.5089831352233887,81.20063018798828,-0.035753108371518724,-0.10650541282510526,0.9195325875060024,0.3766144180776461
2023/04/21/09:36:36.136734,3730,1682087794,938413414,map,11.618423461914062,-0.45833805203437805,81.17922973632812,-0.03595320580318025,-0.10415518337994834,0.9208975764153005,0.3739073049243671
2023/04/21/09:36:36.136752,3731,1682087794,939376577,map,11.427964210510254,-0.28469106554985046,81.17518615722656,-0.039029472665854034,-0.10870572593010892,0.9324316515661858,0.34239014448901167
2023/04/21/09:36:36.136775,3732,1682087794,940796219,map,11.21890926361084,-0.08756311237812042,81.1705093383789,-0.040448686129939404,-0.11210547775763789,0.9333258391041928,0.3386725395692597
2023/04/21/09:36:36.136819,3733,1682087795,38704097,map,10.960678100585938,0.15235380828380585,81.16404724121094,-0.042987067009383054,-0.11753278802648046,0.9350104697125976,0.33180350941922704
2023/04/21/09:36:36.136863,3734,1682087795,136101319,map,10.750937461853027,0.34242796897888184,81.15837860107422,-0.04457966997406421,-0.12008852023662044,0.9370961065111592,0.3247188349187883
2023/04/21/09:36:36.136875,3735,1682087795,234422622,map,10.556553840637207,0.5162039399147034,81.15229797363281,-0.044613861604918675,-0.12001828251357703,0.9379944455137447,0.32213597067491934
2023/04/21/09:36:36.137014,3736,1682087795,243267107,map,10.29668140411377,0.7437782883644104,81.143310546875,-0.04425874806443407,-0.11855615038681741,0.940879291927194,0.3142160088572675
2023/04/21/09:36:36.137028,3737,1682087795,245398296,map,10.085067749023438,0.9244113564491272,81.13509368896484,-0.04316728166525957,-0.1173452608923873,0.943354913515027,0.30732457765725124
2023/04/21/09:36:36.137046,3738,1682087795,248733719,map,9.820011138916016,1.153455376625061,81.1238784790039,-0.04290035777110598,-0.11747824210197326,0.9442192610842883,0.30464496532262564
2023/04/21/09:36:36.137063,3739,1682087795,336145278,map,9.620781898498535,1.3216127157211304,81.11528778076172,-0.04187863123532686,-0.11779490454572578,0.9466035925982467,0.2971737620744935
2023/04/21/09:36:36.337953,3740,1682087795,436068955,map,8.239195823669434,2.423474073410034,81.0491714477539,-0.02403927361901191,-0.039386090980539364,0.9644679347346499,0.2601394316550921
2023/04/21/09:36:36.338110,3749,1682087795,737841468,map,6.112390995025635,4.016622543334961,81.0088882446289,-0.03422042274962411,-0.024259430645658844,0.9694581848186126,0.24164313967211654
2023/04/21/09:36:36.338125,3750,1682087795,840729133,map,5.8850274085998535,4.177159786224365,81.00621032714844,-0.033327518714863044,-0.02588553706218362,0.9683299558308244,0.24608191931673834
2023/04/21/09:36:36.338143,3751,1682087795,938091952,map,5.598326683044434,4.3860697746276855,81.00267028808594,-0.03193501845019949,-0.025606735659284056,0.9675078394037708,0.2495057607023693
2023/04/21/09:36:36.338248,3752,1682087795,940189907,map,5.3835296630859375,4.540233135223389,80.99956512451172,-0.029123946966981982,-0.024138432147304007,0.9660840767142245,0.25544235504937124
2023/04/21/09:36:36.338266,3753,1682087795,941386018,map,5.151357173919678,4.7041449546813965,80.9958267211914,-0.025685339202484624,-0.021605205531088214,0.9644324049413553,0.26219000227569267
2023/04/21/09:36:36.338282,3754,1682087795,942287732,map,4.865644454956055,4.904993534088135,80.99078369140625,-0.024488535151899627,-0.020191033389847582,0.9638176299355511,0.264666319286526
2023/04/21/09:36:36.338297,3755,1682087795,944314564,map,4.651747703552246,5.054038047790527,80.98648071289062,-0.019654250962576714,-0.014534461222626843,0.9618922143816038,0.27233441153747673
2023/04/21/09:36:36.338315,3756,1682087796,39344731,map,3.8958616256713867,5.58838415145874,80.97114562988281,-0.009834888733220748,-0.0036743853022375966,0.9577445640930708,0.28742869420235007
2023/04/21/09:36:36.338357,3757,1682087796,40659270,map,3.6802916526794434,5.742764949798584,80.9686279296875,-0.008564348935802069,-0.0010435223833599049,0.9561198452298243,0.2928491582424876
2023/04/21/09:36:36.338396,3758,1682087796,42626914,map,3.3947315216064453,5.9477763175964355,80.96613311767578,-0.009602104774177746,-0.0014418519193641105,0.9548139672755629,0.29704563565502035
2023/04/21/09:36:36.735714,3759,1682087796,141703267,map,3.1645171642303467,6.11297082901001,80.96356201171875,-0.010029515964926726,-0.0025028230980074493,0.9542105508454324,0.298957374556626
2023/04/21/09:36:36.735726,3760,1682087796,241652870,map,2.880591630935669,6.320354461669922,80.96028900146484,-0.011905819245102325,-0.007072500975936493,0.9533410402872284,0.30157758090827547
2023/04/21/09:36:36.735736,3761,1682087796,246864606,map,2.7363531589508057,6.428680896759033,80.9582290649414,-0.013028197229573147,-0.009796884294301193,0.9530584878148113,0.30234726665578143
2023/04/21/09:36:36.735746,3762,1682087796,247601607,map,2.4325010776519775,6.655888080596924,80.953125,-0.013538854702303964,-0.015265550170428304,0.9526213828489049,0.30347389406332614
2023/04/21/09:36:36.735926,3763,1682087796,335961965,map,2.219111680984497,6.815858840942383,80.94986724853516,-0.012482369693485134,-0.019734631258859815,0.9525081342669561,0.3036165611455355
2023/04/21/09:36:36.735945,3764,1682087796,340290567,map,2.0069520473480225,6.974776268005371,80.94664764404297,-0.011007987651060275,-0.023749433034525032,0.9525856212479433,0.30314247232006075
2023/04/21/09:36:36.735956,3765,1682087796,437828159,map,1.7087123394012451,7.197391986846924,80.94157409667969,-0.010138760925539217,-0.025293367584432735,0.9527371813151886,0.3025712982290411
2023/04/21/09:36:36.735966,3766,1682087796,443337295,map,1.4992611408233643,7.3541741371154785,80.9378433227539,-0.00846488632458341,-0.02714430109598281,0.9531950225305623,0.30101637454692864
2023/04/21/09:36:36.738593,3767,1682087796,542744096,map,1.1994856595993042,7.581469535827637,80.93086242675781,-0.006659849413972683,-0.027111595800082867,0.9539026259702118,0.2988150025023562
2023/04/21/09:36:36.837838,3768,1682087796,644074756,map,0.9888912439346313,7.741209506988525,80.92449188232422,-0.005936525858373228,-0.027147496353935544,0.9542809360824456,0.29761668330549446
2023/04/21/09:36:36.837875,3769,1682087796,736843125,map,0.7759470343589783,7.902135848999023,80.91650390625,-0.00504468537299255,-0.027784264112128292,0.9552280389887581,0.2945200911251263
2023/04/21/09:36:36.837888,3770,1682087796,740110749,map,0.5674598217010498,8.059344291687012,80.90711975097656,-0.004886530641044435,-0.028595223478127544,0.9557949983949268,0.2925992906510908
2023/04/21/09:36:36.937920,3771,1682087796,837349549,map,-1.8277755975723267,9.917852401733398,80.83311462402344,-0.009530088651690537,-0.04181519364287287,0.9675748107460547,0.24891684278812665
2023/04/21/09:36:36.937939,3772,1682087796,841894048,map,-2.048325538635254,10.089552879333496,80.82658386230469,-0.009406021500564625,-0.041269895082660886,0.9691755901993471,0.24270789550604716
2023/04/21/09:36:36.937967,3773,1682087796,844138490,map,-2.2518246173858643,10.246818542480469,80.82035827636719,-0.008775264936640744,-0.04069748029378822,0.9709790117002797,0.23551347061208605
2023/04/21/09:36:37.135578,3774,1682087796,937715109,map,-2.5228517055511475,10.453078269958496,80.8128662109375,-0.009305492047243033,-0.04078957774322959,0.9716465756338437,0.23270686982289712
2023/04/21/09:36:37.135605,3775,1682087797,36207650,map,-2.744593858718872,10.61871337890625,80.80809020996094,-0.011209174315338013,-0.043717172914870206,0.9726578892638627,0.2278152644378743
2023/04/21/09:36:37.342747,3776,1682087797,136211331,map,-3.0223031044006348,10.824175834655762,80.80474853515625,-0.013991873890154232,-0.049615069869494106,0.9733237673234862,0.22357002312161445
2023/04/21/09:36:37.343593,3777,1682087797,139059926,map,-3.247271776199341,10.986903190612793,80.80506896972656,-0.015601311886637449,-0.05219795782096526,0.9736474551200499,0.2214559372003081
2023/04/21/09:36:37.343629,3778,1682087797,142694695,map,-3.4553699493408203,11.135568618774414,80.80733489990234,-0.01922272716137538,-0.05345521411711342,0.9744274246985924,0.2174035177159856
2023/04/21/09:36:37.343806,3779,1682087797,237697537,map,-3.663522720336914,11.281996726989746,80.81097412109375,-0.020611320940017584,-0.052130009198631595,0.9747228741066538,0.2162709476028008
2023/04/21/09:36:37.344046,3780,1682087797,243629544,map,-3.9580812454223633,11.485340118408203,80.81716918945312,-0.02349276136127172,-0.047778871291310136,0.9754152625339908,0.21384632370166617
2023/04/21/09:36:37.540717,3781,1682087797,338370810,map,-5.391241073608398,12.452652931213379,80.8325424194336,-0.012041696404162142,-0.019702885791580246,0.9768745971636805,0.2125624885491758
2023/04/21/09:36:37.540740,3782,1682087797,341244512,map,-5.598667621612549,12.589238166809082,80.83354187011719,-0.00675940685560049,-0.020513152368757104,0.9764776159975563,0.21453466603154603
2023/04/21/09:36:37.543894,3783,1682087797,344659503,map,-5.828560829162598,12.742815017700195,80.83619689941406,-0.002926287302247831,-0.021300045225712133,0.9760115139998745,0.21665461036479544
2023/04/21/09:36:37.543926,3784,1682087797,436846201,map,-6.110241889953613,12.930251121520996,80.84073638916016,-0.0008296771765497238,-0.021549959573769036,0.9755943866401622,0.218519144796069
2023/04/21/09:36:37.634562,3785,1682087797,438270703,map,-6.320107936859131,13.06889820098877,80.84532165527344,0.0009391476886560482,-0.023082153592188428,0.9748056926639779,0.22185612152691903
2023/04/21/09:36:37.634611,3786,1682087797,445097309,map,-6.615062236785889,13.2620267868042,80.8536148071289,0.0008224233087941438,-0.026137559081938322,0.9739335900745903,0.22532118253039363
2023/04/21/09:36:37.634639,3787,1682087797,535257543,map,-6.822319030761719,13.397095680236816,80.86091613769531,0.00038166737213540423,-0.027977724732238373,0.9734379009892538,0.22723486018703082
2023/04/21/09:36:37.634673,3788,1682087797,540107420,map,-7.045414447784424,13.541282653808594,80.87026977539062,-0.001516554244899384,-0.031604370167458706,0.9725121876085605,0.2306922504640765
2023/04/21/09:36:37.839027,3789,1682087797,643328305,map,-7.324469089508057,13.729042053222656,80.88477325439453,-0.003285950068193579,-0.033744149861288604,0.9717881890448403,0.23340600174599596
2023/04/21/09:36:37.839749,3790,1682087797,738083405,map,-7.530143737792969,13.866161346435547,80.89681243896484,-0.0044746650519508985,-0.03445540163751223,0.9713276504311619,0.23519214303903901
2023/04/21/09:36:37.942070,3791,1682087797,835023961,map,-7.751654148101807,14.01201057434082,80.9103775024414,-0.005524602317362989,-0.03423645797912125,0.9707102412473256,0.23773768624855152
2023/04/21/09:36:37.942258,3792,1682087797,844094547,map,-8.023323059082031,14.190116882324219,80.92823791503906,-0.0058366299248683124,-0.033326564154598726,0.9702148471899286,0.2398717497760522
2023/04/21/09:36:38.138393,3793,1682087797,937055608,map,-8.226061820983887,14.322070121765137,80.9416275024414,-0.00586975866488689,-0.032615729895593165,0.9700343322377565,0.24069744868522908
2023/04/21/09:36:38.534610,3794,1682087797,942910344,map,-8.444711685180664,14.463089942932129,80.95616912841797,-0.005285421586241697,-0.03123919538398114,0.9697722209868671,0.2419465548345464
2023/04/21/09:36:38.535473,3795,1682087798,135352510,map,-10.771663665771484,15.974799156188965,81.11800384521484,-0.004712972553054606,-0.029982950612197242,0.9696940385828796,0.24243010562751188
2023/04/21/09:36:38.535513,3796,1682087798,136867349,map,-10.986671447753906,16.110084533691406,81.13098907470703,0.0009045214184263174,-0.024626345632998755,0.970779067050944,0.2387066001489685
2023/04/21/09:36:38.535554,3797,1682087798,139046848,map,-11.184521675109863,16.234384536743164,81.1422348022461,-0.0002689785530185686,-0.0280053137958558,0.9707486370263191,0.2384594510293006
2023/04/21/09:36:38.535584,3798,1682087798,142546322,map,-11.392505645751953,16.35636329650879,81.15396118164062,-0.0022359285090844663,-0.0349640469274989,0.970591302840828,0.23817011291427326
2023/04/21/09:36:38.935037,3799,1682087798,237903693,map,-11.683584213256836,16.52743911743164,81.16886901855469,-0.004532069059622736,-0.041029517117624086,0.9703985653025876,0.2379552061337163
2023/04/21/09:36:38.935211,3800,1682087798,239351630,map,-11.888104438781738,16.647249221801758,81.17861938476562,-0.005673097518468013,-0.04271661068248863,0.970401979197317,0.23762009654120614
2023/04/21/09:36:38.935334,3801,1682087798,244000227,map,-12.107553482055664,16.77581214904785,81.18815612792969,-0.006100978909995689,-0.04288942724936247,0.9705688807174202,0.23689525504051573
2023/04/21/09:36:38.935504,3802,1682087798,334841581,map,-12.376827239990234,16.9327449798584,81.19806671142578,-0.0059979865002142375,-0.0394912598799197,0.9712084169967246,0.2348593936700455
2023/04/21/09:36:38.935532,3803,1682087798,336831723,map,-12.577537536621094,17.049442291259766,81.20384979248047,-0.005166911233674141,-0.036982510869157235,0.9715235068361918,0.2339824863399279
2023/04/21/09:36:38.935577,3804,1682087798,339898338,map,-12.870672225952148,17.217632293701172,81.21247863769531,-0.004498845489195007,-0.03334044758991602,0.9721268811194739,0.232029232792539
2023/04/21/09:36:38.935601,3805,1682087798,435812154,map,-13.076629638671875,17.335369110107422,81.21694946289062,-0.0025948155095998106,-0.029519852894560678,0.9727676818042335,0.22988024928066553
2023/04/21/09:36:38.935665,3806,1682087798,537071584,map,-13.29725170135498,17.461641311645508,81.22016906738281,-0.002073856754402871,-0.02814626075981032,0.9730466517945271,0.2288750047968322
2023/04/21/09:36:38.935750,3807,1682087798,540456650,map,-13.567826271057129,17.616073608398438,81.22260284423828,-0.0008891707459453907,-0.026711612329546858,0.973518527910455,0.22704052106854705
2023/04/21/09:36:39.137117,3808,1682087798,636143671,map,-13.769282341003418,17.731048583984375,81.22283935546875,0.00023022057454560323,-0.02592036056649349,0.9738619404321218,0.22565700861932847
2023/04/21/09:36:39.137143,3809,1682087798,746105596,map,-13.969537734985352,17.845460891723633,81.22200012207031,0.000952621509289375,-0.02566563159953873,0.9740235314493126,0.22498577790994395
2023/04/21/09:36:39.137320,3810,1682087798,747903210,map,-14.255515098571777,18.015108108520508,81.22091674804688,0.001504442294308416,-0.02577923316134378,0.9743189387105254,0.22368735994786887
2023/04/21/09:36:39.137361,3811,1682087798,748810037,map,-14.456338882446289,18.134201049804688,81.219482421875,0.0015960247619445556,-0.02589845079071291,0.9746120700419187,0.22239180797149244
2023/04/21/09:36:39.137389,3812,1682087798,749551630,map,-14.655858993530273,18.252342224121094,81.21778869628906,0.0011528229909831698,-0.026197381265043472,0.9747781286250516,0.22163029871259765
2023/04/21/09:36:39.541772,3813,1682087798,938867072,map,-16.21373748779297,19.18380355834961,81.23797607421875,0.0011528229909831698,-0.026197381265043472,0.9747781286250516,0.22163029871259765
2023/04/21/09:36:39.541812,3814,1682087799,134340207,map,-16.472314834594727,19.337175369262695,81.24290466308594,-0.010895837521350813,-0.02408183996037438,0.9779839022164873,0.20699944172052587
2023/04/21/09:36:39.541862,3815,1682087799,137662544,map,-16.665576934814453,19.450742721557617,81.24603271484375,-0.010827579383098406,-0.024985999179321386,0.978121806704815,0.20624332725824046
2023/04/21/09:36:39.541888,3816,1682087799,139395284,map,-16.88066864013672,19.578908920288086,81.25145721435547,-0.010889882961909634,-0.027821146555842363,0.9782423888384046,0.2053027360400228
2023/04/21/09:36:39.541973,3817,1682087799,142019452,map,-17.14479637145996,19.735069274902344,81.25743865966797,-0.010211243626810331,-0.03127657041898719,0.9782547378650183,0.20478091590860942
2023/04/21/09:36:39.542054,3818,1682087799,143101081,map,-17.35772705078125,19.859045028686523,81.26142120361328,-0.009758291445863753,-0.03238819618264006,0.9782349709930667,0.20472448127845339
2023/04/21/09:36:39.542241,3819,1682087799,144978539,map,-17.553878784179688,19.97256088256836,81.26467895507812,-0.008808196113306924,-0.0332854130253839,0.9782380898598564,0.20460899891353346
2023/04/21/09:36:39.542282,3820,1682087799,236062954,map,-18.490379333496094,20.511045455932617,81.27302551269531,-0.008110324644396493,-0.03635323603037632,0.9782331165317322,0.204138808671546
2023/04/21/09:36:39.542308,3821,1682087799,236984087,map,-18.703458786010742,20.63129425048828,81.2743911743164,-0.00792383010809185,-0.03575554630328726,0.9782118745200827,0.2043533361304664
2023/04/21/09:36:40.139668,3822,1682087799,239404111,map,-18.899816513061523,20.741443634033203,81.27559661865234,-0.008172916665702216,-0.033515355694147216,0.9782444540339816,0.20456765285514433
2023/04/21/09:36:40.139707,3827,1682087799,437435896,map,-20.043127059936523,21.383588790893555,81.26371765136719,-0.003958299644697138,-0.02291821091255965,0.9782680562691477,0.2060356275887787
2023/04/21/09:36:40.139738,3828,1682087799,444439314,map,-20.238061904907227,21.492380142211914,81.25881958007812,-0.003526443937063786,-0.025637671116818795,0.9780595979564128,0.2067120845073786
2023/04/21/09:36:40.139760,3829,1682087799,537967506,map,-20.51240348815918,21.643295288085938,81.25066375732422,-0.003914680949210901,-0.029179756803036114,0.9778324264429391,0.20730896817598993
2023/04/21/09:36:40.139817,3830,1682087799,538999295,map,-20.705339431762695,21.748674392700195,81.24400329589844,-0.004395878104104857,-0.031067955372659405,0.9776898015075783,0.2076969720633811
2023/04/21/09:36:40.140008,3831,1682087799,634380117,map,-20.96546745300293,21.89731788635254,81.23521423339844,-0.005164374520229387,-0.03376550250841543,0.9774407557797273,0.20842986361213706
2023/04/21/09:36:40.140033,3832,1682087799,637421362,map,-21.17531967163086,22.014545440673828,81.22653198242188,-0.005642219683577714,-0.03560999084486588,0.9772913030549077,0.20881053394788757
2023/04/21/09:36:40.140180,3833,1682087799,639192909,map,-21.36867332458496,22.121923446655273,81.21768951416016,-0.005196299440887375,-0.03618116625297453,0.977218894769166,0.20906282498307371
2023/04/21/09:36:40.140219,3834,1682087799,646366299,map,-21.56132698059082,22.22763442993164,81.2083740234375,-0.0048356607119807975,-0.0366599057197647,0.9772505049055492,0.2088402053292392
2023/04/21/09:36:40.140413,3835,1682087799,735531669,map,-21.83303451538086,22.373926162719727,81.1948471069336,-0.0049761835732721835,-0.036161103035994326,0.9773681789065916,0.2083726281918593
2023/04/21/09:36:40.140440,3836,1682087799,737323000,map,-22.0244140625,22.47601890563965,81.18466186523438,-0.005613979977986397,-0.035549111039280906,0.9774774656847803,0.20794842016159715
2023/04/21/09:36:40.838531,3837,1682087799,839976503,map,-22.23777198791504,22.589319229125977,81.17411804199219,-0.007040299137312897,-0.03511622470949256,0.9775861202602414,0.20746769320748187
2023/04/21/09:36:40.838562,3839,1682087799,842620436,map,-22.694664001464844,22.83031463623047,81.1461410522461,-0.009736861090484978,-0.03753604518698605,0.9776893800390931,0.2064454635436987
2023/04/21/09:36:40.838605,3840,1682087799,935233299,map,-22.89505386352539,22.934839248657227,81.13064575195312,-0.01040407467837078,-0.039676191031562384,0.9779031067078918,0.2049958226891665
2023/04/21/09:36:40.838636,3841,1682087800,41971058,map,-23.168115615844727,23.076404571533203,81.10684204101562,-0.009210614222888939,-0.04029438388336297,0.9783031224471088,0.2030139514316387
2023/04/21/09:36:40.838736,3842,1682087800,44029200,map,-23.36014175415039,23.175691604614258,81.08937072753906,-0.007674253593367542,-0.04005804806451617,0.9786641944983017,0.20137743145080922
2023/04/21/09:36:40.838819,3843,1682087800,235916245,map,-23.55281639099121,23.275413513183594,81.07229614257812,-0.005114398894607597,-0.03893370712350318,0.9792746915989818,0.19869389945927207
2023/04/21/09:36:40.839034,3844,1682087800,240029396,map,-23.82425308227539,23.41446876525879,81.04889678955078,-0.0033292032714778786,-0.03571012912274973,0.9801935771902164,0.19476724617090613
2023/04/21/09:36:40.839066,3845,1682087800,241538526,map,-24.01535415649414,23.511754989624023,81.03339385986328,-0.0031384334642274125,-0.03364051866333441,0.9807352906341269,0.19239745531968405
2023/04/21/09:36:40.839095,3846,1682087800,347024368,map,-25.789220809936523,24.39681053161621,80.87129211425781,-0.011760023088663262,-0.017909203505376156,0.9855261650512088,0.16816423968452687
2023/04/21/09:36:40.839125,3847,1682087800,347900366,map,-25.98119354248047,24.488555908203125,80.85052490234375,-0.011390390288138912,-0.018346445119268043,0.9854747458960256,0.16844342040906302
2023/04/21/09:36:40.839200,3848,1682087800,437547194,map,-26.19363021850586,24.5936279296875,80.82889556884766,-0.01190402833331286,-0.021840050405168943,0.9852422217327909,0.16934919833041057
2023/04/21/09:36:41.441097,3849,1682087800,545528594,map,-26.455204010009766,24.72150421142578,80.80210876464844,-0.013419348465804209,-0.02627698217390137,0.9849082922520391,0.17054359787036089
2023/04/21/09:36:41.441130,3850,1682087800,642800686,map,-26.601634979248047,24.791454315185547,80.78689575195312,-0.014241667724566167,-0.028174586076187672,0.9847171984408907,0.17127619439117714
2023/04/21/09:36:41.441154,3851,1682087800,738561832,map,-26.92746353149414,24.945594787597656,80.7529525756836,-0.016404784918669958,-0.029953429378993385,0.9843820467015321,0.1727014322204216
2023/04/21/09:36:41.441176,3852,1682087800,943716557,map,-27.12265968322754,25.036148071289062,80.73199462890625,-0.01733111667265623,-0.03054872529679592,0.9840832676924383,0.17420257652383409
2023/04/21/09:36:41.441225,3853,1682087800,944717520,map,-27.333690643310547,25.132244110107422,80.70862579345703,-0.01815436579626346,-0.031028993903933624,0.9839438880644128,0.17482057576354937
2023/04/21/09:36:42.039053,3854,1682087801,140846317,map,-30.95059585571289,26.793306350708008,80.34444427490234,-0.018532507979647707,-0.031947383611153624,0.9836647916335737,0.17618057027129885
2023/04/21/09:36:42.045907,3855,1682087801,144571189,map,-31.218233108520508,26.9123592376709,80.31968688964844,-0.014749018182283297,-0.014498942758355645,0.9836109701080253,0.17911344301862642
2023/04/21/09:36:42.046031,3856,1682087801,236954511,map,-31.418437957763672,27.000656127929688,80.30058288574219,-0.0150739620393086,-0.017444791909128107,0.983546443282955,0.17917864419327278
2023/04/21/09:36:42.133920,3857,1682087801,345373676,map,-31.70826530456543,27.136611938476562,80.27335357666016,-0.01425358869724967,-0.023861813654812276,0.9833338967259146,0.17967197305509286
2023/04/21/09:36:42.134303,3858,1682087801,346551986,map,-31.91243553161621,27.231643676757812,80.25434112548828,-0.013574335598668923,-0.026271974601462668,0.9832986619605596,0.17958127303709737
2023/04/21/09:36:42.135031,3859,1682087801,347377184,map,-32.11594009399414,27.325191497802734,80.23583221435547,-0.01275550201598772,-0.027724715224993948,0.9832863550807943,0.1794897300821317
2023/04/21/09:36:42.135155,3860,1682087801,348349032,map,-32.402801513671875,27.454648971557617,80.21013641357422,-0.01227348036336977,-0.029787767898198775,0.9833685835822391,0.17874073843724464
2023/04/21/09:36:42.441644,3861,1682087801,537045657,map,-32.604984283447266,27.545228958129883,80.1922836303711,-0.012374945608437207,-0.03287419017573016,0.9834824643669156,0.1775629869024562
2023/04/21/09:36:42.441672,3862,1682087801,541982137,map,-32.739471435546875,27.60499382019043,80.18048095703125,-0.012566439814646455,-0.03449383561208711,0.9835241476000928,0.17701048386532686
2023/04/21/09:36:42.441875,3863,1682087801,636788619,map,-34.482147216796875,28.399559020996094,80.03205871582031,-0.012948016307639832,-0.03560226611778724,0.9836379862379208,0.1761285610602364
2023/04/21/09:36:42.441903,3864,1682087801,641814239,map,-34.63435745239258,28.469133377075195,80.01970672607422,-0.009660782077655765,-0.031060251719005023,0.987826750777176,0.15211981954024817
2023/04/21/09:36:42.442120,3865,1682087801,642880049,map,-34.90508270263672,28.592321395874023,79.99761199951172,-0.009990432336194706,-0.031797469905178406,0.9881160045985062,0.15005323311721352
2023/04/21/09:36:42.442277,3866,1682087801,737837113,map,-35.10771179199219,28.682357788085938,79.9803237915039,-0.010819578067326412,-0.0331564304980504,0.9886481085609562,0.14614634670079923
2023/04/21/09:36:42.442319,3867,1682087801,837496441,map,-35.3774299621582,28.79936408996582,79.95645904541016,-0.011365010312073513,-0.033302456815794995,0.9891646603363058,0.1425307371544436
2023/04/21/09:36:42.442343,3868,1682087801,844711525,map,-35.59613037109375,28.891271591186523,79.93604278564453,-0.011706755399046066,-0.032077556128413044,0.9894451476131457,0.1408275408592699
2023/04/21/09:36:42.937663,3869,1682087802,142115088,map,-35.87117385864258,29.011585235595703,79.91112518310547,-0.011739071495141794,-0.028269459290730204,0.9899477909284866,0.13808150509139117
2023/04/21/09:36:42.937688,3873,1682087802,238322010,map,-39.1224479675293,30.3216552734375,79.61359405517578,-0.0166832715372947,-0.023095822341996107,0.9884368264093712,0.14893296988379395
2023/04/21/09:36:42.937708,3874,1682087802,334082489,map,-39.40066146850586,30.424663543701172,79.59390258789062,-0.015796792921298024,-0.02163303825617359,0.9882272301317264,0.15063060279496426
2023/04/21/09:36:42.938385,3875,1682087802,335674731,map,-39.62614059448242,30.50580596923828,79.5798110961914,-0.015072685368461812,-0.02001653374784746,0.9880451978930078,0.15211438259679028
2023/04/21/09:36:42.938414,3876,1682087802,337016138,map,-39.83424758911133,30.580198287963867,79.56788635253906,-0.014632449188056,-0.019573840867154618,0.9879789430471487,0.1526453485943305
2023/04/21/09:36:42.938654,3877,1682087802,341862462,map,-40.04545211791992,30.66304588317871,79.55802154541016,-0.013640820276561338,-0.018909127608129496,0.9878180263795342,0.15385656472683662
2023/04/21/09:36:42.938919,3878,1682087802,435175539,map,-40.34332275390625,30.77606773376465,79.54521179199219,-0.012377282453623783,-0.01818838390064006,0.9876656233753187,0.15502436960537647
2023/04/21/09:36:42.938953,3879,1682087802,436123450,map,-40.553218841552734,30.854799270629883,79.53690338134766,-0.011356542417517615,-0.01778874880014878,0.987590728425515,0.15562500434350524
2023/04/21/09:36:42.939168,3880,1682087802,440712635,map,-40.7797737121582,30.93745994567871,79.52790832519531,-0.010126987466825495,-0.01710032711565565,0.9874711156694411,0.15654355275995158
2023/04/21/09:36:42.939212,3881,1682087802,535203806,map,-41.058135986328125,31.03824806213379,79.51641082763672,-0.009452693208389863,-0.0170734374263057,0.9874017841036407,0.15702558626637075
2023/04/21/09:36:42.939523,3882,1682087802,536565976,map,-41.266353607177734,31.112329483032227,79.50736236572266,-0.008149468529950984,-0.017946758981577392,0.9872805697673233,0.15776172312246195
2023/04/21/09:36:43.743252,3883,1682087802,634201996,map,-41.499725341796875,31.193389892578125,79.49896240234375,-0.007441402792056978,-0.018945400898173693,0.9872185296063152,0.15806787783004517
2023/04/21/09:36:43.743564,3884,1682087802,636472589,map,-41.78628158569336,31.292192459106445,79.48904418945312,-0.006347152066702733,-0.020784728879859587,0.9870948707527842,0.158655236310893
2023/04/21/09:36:43.744159,3885,1682087802,637824489,map,-42.00001907348633,31.364904403686523,79.48184204101562,-0.00515872552543991,-0.02259748459064838,0.9869450808531766,0.15938066786746247
2023/04/21/09:36:43.744534,3886,1682087802,643011973,map,-42.23003387451172,31.441967010498047,79.47439575195312,-0.005146819699280091,-0.02327184931334637,0.98690790733279,0.1595141047898479
2023/04/21/09:36:43.744579,3887,1682087802,735842528,map,-42.51242446899414,31.53609275817871,79.46586608886719,-0.004758364050356323,-0.023719484405935496,0.986832253739713,0.15992777610798237
2023/04/21/09:36:43.744611,3888,1682087802,743752795,map,-42.723228454589844,31.6057071685791,79.45921325683594,-0.004730157271990408,-0.023751521279159835,0.9868444341789324,0.15984875076702443
2023/04/21/09:36:43.744636,3889,1682087802,834427182,map,-43.02766418457031,31.709375381469727,79.44990539550781,-0.004613719358989474,-0.023826302300763814,0.9868826613705319,0.15960509983578297
2023/04/21/09:36:43.744665,3890,1682087802,842119057,map,-43.2588996887207,31.78679656982422,79.44246673583984,-0.004542098033934799,-0.0257357843703406,0.9870072474547301,0.15853659293233485
2023/04/21/09:36:43.744885,3891,1682087802,845297498,map,-43.47207260131836,31.85747528076172,79.43511199951172,-0.004383995327002815,-0.029747979297570965,0.9871416537546314,0.15699481906695784
2023/04/21/09:36:43.744913,3892,1682087802,944650659,map,-43.68443298339844,31.926727294921875,79.4283447265625,-0.004125320361356221,-0.0312976570141328,0.9871972875946657,0.15634887646667983
2023/04/21/09:36:43.744937,3893,1682087802,945855747,map,-43.966426849365234,32.01683044433594,79.42121124267578,-0.003931269685366985,-0.03417321136457458,0.9874210452134101,0.1543260384723994
2023/04/21/09:36:43.834142,3894,1682087803,236398992,map,-44.194305419921875,32.087974548339844,79.41645812988281,-0.004715814831151053,-0.03418861340352728,0.9877580935609518,0.15212778529461668
2023/04/21/09:36:43.834174,3895,1682087803,244414901,map,-44.48042297363281,32.18461227416992,79.40966796875,-0.005755776464356222,-0.03419897494281588,0.9879465742674924,0.15086051385359123
2023/04/21/09:36:43.834388,3896,1682087803,335008459,map,-44.69390869140625,32.255096435546875,79.404541015625,-0.007283067618913679,-0.03377174551035111,0.9882349008581555,0.1489911746815875
2023/04/21/09:36:44.039093,3897,1682087803,341995870,map,-44.9235954284668,32.3289909362793,79.39942169189453,-0.00787345145323117,-0.033600572670569186,0.9885569027807786,0.14684834460959661
2023/04/21/09:36:44.039216,3898,1682087803,435442655,map,-45.13541793823242,32.39644241333008,79.39530181884766,-0.007532754769115326,-0.03373460228301186,0.9886913512275284,0.1459274359696336
2023/04/21/09:36:44.039249,3899,1682087803,450064786,map,-48.10287857055664,33.31466293334961,79.3320541381836,-0.007481251320235015,-0.03447958470893436,0.9887962968803206,0.1450412563328436
2023/04/21/09:36:44.039274,3900,1682087803,538701473,map,-48.32966995239258,33.37910079956055,79.32076263427734,0.006711496425555585,-0.02731967347409213,0.9918099651362435,0.1245857891702633
2023/04/21/09:36:44.039299,3901,1682087803,539725782,map,-48.53843688964844,33.437564849853516,79.30917358398438,0.005782763618293208,-0.024523070049078867,0.9919262061444365,0.12428856959456447
2023/04/21/09:36:44.635431,3902,1682087803,634252918,map,-48.838951110839844,33.524227142333984,79.28900909423828,0.0056731712754527555,-0.02320799091095179,0.9919532644211806,0.12433071644307536
2023/04/21/09:36:44.635449,3903,1682087803,635715571,map,-49.050045013427734,33.58379364013672,79.27413940429688,0.00533967050717564,-0.01819987122176506,0.9920065801845468,0.12475231136872983
2023/04/21/09:36:44.635502,3904,1682087803,636978823,map,-49.25981903076172,33.641746520996094,79.25973510742188,0.006130889343003607,-0.01237738815001731,0.9919599657700938,0.12579578304416245
2023/04/21/09:36:44.635515,3905,1682087803,734910040,map,-49.48518371582031,33.70244598388672,79.24412536621094,0.006442928968946202,-0.009756951143153874,0.9919068185941216,0.12642903944303874
2023/04/21/09:36:44.635527,3906,1682087803,742569658,map,-49.761470794677734,33.77605438232422,79.2259750366211,0.006775409816416581,-0.0047211480538489475,0.9916809957798002,0.12845470127616931
2023/04/21/09:36:44.635574,3907,1682087803,744255959,map,-49.96746063232422,33.830081939697266,79.21178436279297,0.005861550895411501,-6.355909391576787e-05,0.9913578558922671,0.1310546139202608
2023/04/21/09:36:44.635585,3908,1682087803,839781617,map,-50.19506072998047,33.89353942871094,79.1952133178711,0.004806155283844998,0.001289117337988803,0.9910860087193719,0.13313110485269547
2023/04/21/09:36:44.635599,3909,1682087803,843125299,map,-50.474037170410156,33.970787048339844,79.17479705810547,0.0028788627957317564,0.0003011831081381131,0.9906637815909898,0.13629776616871303
2023/04/21/09:36:44.635813,3910,1682087803,938850080,map,-50.612632751464844,34.0086555480957,79.16459655761719,0.0011009428958033288,-0.0023852277518746994,0.990063146852861,0.14059889420609833
2023/04/21/09:36:44.635888,3911,1682087803,941611949,map,-50.904823303222656,34.08728790283203,79.14300537109375,0.00011095273115774773,-0.004413670824257658,0.9896500655906058,0.1434342391459717
2023/04/21/09:36:44.635911,3912,1682087804,40591150,map,-51.178470611572266,34.16053009033203,79.1231918334961,-0.0007879083325864064,-0.0076263978225169435,0.9890219511072479,0.14757023583089118
2023/04/21/09:36:44.635926,3913,1682087804,42466031,map,-51.399024963378906,34.21868133544922,79.10696411132812,-0.0018983085449099139,-0.012131344726578333,0.988235364473489,0.15244692123154124
2023/04/21/09:36:44.635937,3914,1682087804,44232447,map,-51.6057014465332,34.27821731567383,79.09273529052734,-0.0021616453471285193,-0.013656103777502598,0.9879887211160033,0.1539068037702616
2023/04/21/09:36:44.636284,3915,1682087804,45709618,map,-51.811187744140625,34.336639404296875,79.0787353515625,-0.0030659632753019445,-0.017240568778442125,0.9873665071914369,0.1574829217195624
2023/04/21/09:36:44.636298,3916,1682087804,135485266,map,-52.099853515625,34.41717529296875,79.05965423583984,-0.0036677465150526203,-0.019783695129610295,0.9868777723361046,0.16021024428670239
2023/04/21/09:36:44.636313,3917,1682087804,137545192,map,-52.302734375,34.47362518310547,79.0470962524414,-0.0038157524175882114,-0.020495582401284126,0.9866554055633612,0.1614828262306403
2023/04/21/09:36:44.636354,3918,1682087804,145308326,map,-52.521034240722656,34.533512115478516,79.0345230102539,-0.0034010294038745383,-0.021540018844421034,0.9863742017900965,0.1630661147418006
2023/04/21/09:36:44.636402,3919,1682087804,146366318,map,-52.78859329223633,34.60698699951172,79.02088928222656,-0.002433504373824931,-0.02211359728143931,0.986287632163255,0.16352930860693526
2023/04/21/09:36:44.636546,3920,1682087804,234639344,map,-52.9968147277832,34.66372299194336,79.0133285522461,-0.0017699852206289096,-0.0226055050042111,0.9863143111183625,0.16330984996673914
2023/04/21/09:36:44.636560,3921,1682087804,235672496,map,-53.219993591308594,34.72380447387695,79.00630187988281,-0.0023701978317280437,-0.024609804312047238,0.986474890611189,0.1620372680228011
2023/04/21/09:36:45.035252,3922,1682087804,341050880,map,-53.49365234375,34.79726028442383,78.99771118164062,-0.004783115445688857,-0.026797831610709984,0.9867567687340298,0.15990649194948442
2023/04/21/09:36:45.035291,3923,1682087804,348134286,map,-53.713958740234375,34.855690002441406,78.98956298828125,-0.005833182444369015,-0.02786248273606393,0.9869171796394622,0.1586952758169783
2023/04/21/09:36:45.035307,3924,1682087804,437858121,map,-53.984344482421875,34.92691421508789,78.97724151611328,-0.007224062030998428,-0.029669102787671844,0.98736246109398,0.15550918480379727
2023/04/21/09:36:45.035333,3925,1682087804,534765374,map,-54.18608474731445,34.97944641113281,78.9659194946289,-0.007368666551150289,-0.030760391379829184,0.9878880322949107,0.1519109397590282
2023/04/21/09:36:45.035366,3926,1682087804,539015622,map,-54.4168701171875,35.03678512573242,78.95336151123047,-0.0071756748147298885,-0.030915393000673076,0.9882021527568624,0.14983111922556108
2023/04/21/09:36:45.035383,3927,1682087804,545403729,map,-54.69994354248047,35.106327056884766,78.93711853027344,-0.004798854659429643,-0.029685148883153354,0.9889016640015978,0.14549669517785224
2023/04/21/09:36:45.035407,3928,1682087804,548269847,map,-54.91032028198242,35.15740966796875,78.92451477050781,-0.0031458170652509145,-0.02867111546431648,0.9895290198416824,0.14142257006654674
2023/04/21/09:36:45.035422,3929,1682087804,634045788,map,-55.91960144042969,35.3944206237793,78.86006164550781,-0.0031458170652509145,-0.02867111546431648,0.9895290198416824,0.14142257006654674
2023/04/21/09:36:45.035437,3930,1682087804,635963491,map,-56.12937545776367,35.44222640991211,78.84571075439453,-0.0014159365466137152,-0.029542306628104854,0.9913801937219779,0.12763448145729878
2023/04/21/09:36:45.035454,3931,1682087804,637511476,map,-56.337467193603516,35.48930358886719,78.83058166503906,-0.0022971797337719368,-0.031101795340746606,0.9917290853339511,0.12450204338227211
2023/04/21/09:36:45.035475,3932,1682087804,654116980,map,-56.56024932861328,35.53928756713867,78.81271362304688,-0.002515812559155151,-0.03131292602709488,0.9919349726889268,0.12279387375897405
2023/04/21/09:36:45.035486,3933,1682087804,739783398,map,-56.83333206176758,35.599647521972656,78.78934478759766,-0.0022455261367438028,-0.029882505452572664,0.9924227381667434,0.11915967745242528
2023/04/21/09:36:45.035498,3934,1682087804,742348833,map,-56.98516082763672,35.63286590576172,78.77601623535156,-0.0008968888875789438,-0.028578891574329565,0.9929217568531123,0.11527812129196596
2023/04/21/09:36:45.035510,3935,1682087804,835152566,map,-57.26751708984375,35.694122314453125,78.75343322753906,-0.00030668286027860705,-0.028844292913580698,0.9931276863549365,0.11342500865663896
2023/04/21/09:36:45.035539,3936,1682087804,838947450,map,-57.546363830566406,35.75341033935547,78.73055267333984,0.0004792267897260035,-0.03064953726571144,0.9934914136575856,0.10970462204488535
2023/04/21/09:36:45.041444,3937,1682087804,839951385,map,-57.769588470458984,35.800079345703125,78.7119369506836,0.001344002412917606,-0.031225001115656077,0.9938397995073767,0.10632832230437467
2023/04/21/09:36:45.041627,3938,1682087804,847183873,map,-57.97518539428711,35.8421516418457,78.69551849365234,0.0016070158697827934,-0.031191627397080528,0.9940153832782731,0.10468105487717477
2023/04/21/09:36:45.235981,3939,1682087804,940383240,map,-58.24738693237305,35.896427154541016,78.6748046875,0.0012835835884882224,-0.03274699625528033,0.994311296301668,0.10134685983832648
2023/04/21/09:36:45.235999,3940,1682087804,944856387,map,-58.450252532958984,35.93570327758789,78.65953826904297,-0.0005125873374115299,-0.0358435397033549,0.9945089228743356,0.0983216854927601
2023/04/21/09:36:45.236040,3941,1682087804,945921665,map,-58.67164611816406,35.98073959350586,78.64328002929688,-0.0021680220335993186,-0.03653110099944835,0.9945900977045676,0.09721811241135087
2023/04/21/09:36:45.246854,3942,1682087805,138672124,map,-58.94330978393555,36.03422164916992,78.62225341796875,-0.005331114038383561,-0.032349393423140686,0.9948896353569345,0.09549805737677275
2023/04/21/09:36:45.246870,3943,1682087805,139451818,map,-59.161827087402344,36.075653076171875,78.60525512695312,-0.0061639258867912045,-0.021802715541377877,0.9952979118784595,0.09417409842450003
2023/04/21/09:36:45.246881,3944,1682087805,141935713,map,-59.362998962402344,36.113014221191406,78.58981323242188,-0.005723844299708641,-0.015512598697422582,0.9954653191607448,0.09367769284273869
2023/04/21/09:36:45.246961,3945,1682087805,150100285,map,-59.6295166015625,36.1614990234375,78.57038879394531,-0.0037995020909911614,-0.005754847340373514,0.9955966065938563,0.0934883270523793
2023/04/21/09:36:45.441878,3946,1682087805,245008547,map,-59.84428405761719,36.19989776611328,78.55529022216797,-0.001346117081650939,-0.0004537579924702251,0.9954662885382606,0.0951051644549541
2023/04/21/09:36:45.441891,3947,1682087805,334065239,map,-60.050575256347656,36.23600769042969,78.5438232421875,9.640482443190452e-05,0.0009150654568617006,0.9953274989661142,0.09655269796706084
2023/04/21/09:36:45.441903,3948,1682087805,334800815,map,-61.011295318603516,36.40293502807617,78.50543975830078,-0.002807768388601666,-0.006830347904178413,0.9937962618128648,0.11097067122730409
2023/04/21/09:36:45.442229,3949,1682087805,335644518,map,-61.22651672363281,36.44068145751953,78.4993667602539,-0.005399244748273674,-0.010025532429197927,0.9931694960286594,0.1161241771289736
2023/04/21/09:36:45.442352,3950,1682087805,434161310,map,-61.42755889892578,36.4838981628418,78.49359893798828,-0.0058071351980808995,-0.010884034922042613,0.9928270528845085,0.11892226425476338
2023/04/21/09:36:45.541429,3951,1682087805,438558099,map,-61.7097282409668,36.543853759765625,78.48504638671875,-0.006257440853286023,-0.011863147536618558,0.9922267553211677,0.12371785911887845
2023/04/21/09:36:45.541604,3952,1682087805,439490428,map,-61.90803527832031,36.58640670776367,78.47831726074219,-0.005833631242451204,-0.011419422222773326,0.9917121844476983,0.1278378400013639
2023/04/21/09:36:45.541796,3953,1682087805,534656136,map,-62.10526657104492,36.628929138183594,78.47079467773438,-0.005512536135615466,-0.01171957693134423,0.9915031782259327,0.1294365121122305
2023/04/21/09:36:45.737935,3954,1682087805,535845336,map,-62.382633209228516,36.68901062011719,78.46002197265625,-0.003698947695296331,-0.013599516365020657,0.9910918671313149,0.13243260513232452
2023/04/21/09:36:45.738025,3955,1682087805,536624511,map,-62.57756805419922,36.73200607299805,78.45195770263672,-0.0016308367417256842,-0.0163512650065062,0.9907369063731561,0.13479746480227073
2023/04/21/09:36:45.738147,3956,1682087805,548063608,map,-62.77770233154297,36.77481460571289,78.44593048095703,-0.0006751562931966539,-0.017751565730866805,0.9906084849257435,0.13556989009492987
2023/04/21/09:36:45.738163,3957,1682087805,635297591,map,-63.061336517333984,36.83607482910156,78.43714904785156,-0.00013477310919225694,-0.020830345599383043,0.9904930025608236,0.13597702865154515
2023/04/21/09:36:45.738241,3958,1682087805,636349652,map,-63.258323669433594,36.8790397644043,78.43109130859375,-0.0002425748695155051,-0.024023391501112882,0.990543115163703,0.13508212461711333
2023/04/21/09:36:45.844114,3959,1682087805,734989476,map,-63.454166412353516,36.921852111816406,78.42508697509766,-0.0007652405720771358,-0.02561176134169672,0.9906231098821767,0.134198895259719
2023/04/21/09:36:46.044742,3960,1682087805,741675408,map,-63.729400634765625,36.98184585571289,78.4173583984375,-0.0020582624204538366,-0.028752361417355324,0.9909022906067129,0.13146044592457223
2023/04/21/09:36:46.044755,3961,1682087805,742641976,map,-63.92280960083008,37.02391815185547,78.41242218017578,-0.0035651874275574205,-0.03107322636290129,0.9914005506498087,0.12707009300888944
2023/04/21/09:36:46.044870,3962,1682087805,834199431,map,-64.12059020996094,37.072757720947266,78.40772247314453,-0.003927062903049989,-0.03172495625231541,0.9916367837357123,0.1250381512953307
2023/04/21/09:36:46.044967,3963,1682087805,835687581,map,-64.3978271484375,37.13955307006836,78.39908599853516,-0.004740078245003166,-0.033722350720985346,0.992192700667571,0.11997530326480799
2023/04/21/09:36:46.045112,3964,1682087805,837654899,map,-64.59246826171875,37.185977935791016,78.39132690429688,-0.003957373072574401,-0.03440104800800136,0.9927397246143939,0.11519032940651774
2023/04/21/09:36:46.143018,3965,1682087805,934496112,map,-64.8014907836914,37.23474884033203,78.38214874267578,-0.0024123354606158274,-0.034218805035040246,0.9931381387733673,0.11180319792593973
2023/04/21/09:36:46.143046,3966,1682087805,935200193,map,-65.05748748779297,37.293861389160156,78.36992645263672,0.0007961236753233496,-0.03337310612915589,0.9936818752660064,0.10715469556312773
2023/04/21/09:36:46.143128,3967,1682087805,935874207,map,-65.31366729736328,37.35560607910156,78.35945892333984,0.003607272372884426,-0.032936726879297204,0.9943853483145018,0.10049814874986268
2023/04/21/09:36:46.143308,3968,1682087806,34017412,map,-65.45753479003906,37.39089584350586,78.35430908203125,0.004336939687729279,-0.03304008675691411,0.9945920364595991,0.09836914284418341
2023/04/21/09:36:46.143323,3969,1682087806,34601464,map,-65.71281433105469,37.452964782714844,78.34564971923828,0.0048253768809439984,-0.03522543773069641,0.9950746600218974,0.09253311087772831
2023/04/21/09:36:46.143824,3970,1682087806,36008061,map,-65.90309143066406,37.49774932861328,78.33909606933594,0.003703331626085828,-0.0381042347542955,0.995462031706561,0.08711846310268528
2023/04/21/09:36:46.144025,3971,1682087806,44100209,map,-66.10783386230469,37.544063568115234,78.33126068115234,0.0030268773416640155,-0.038883369298401985,0.9956354659881834,0.08478845887645747
2023/04/21/09:36:46.344015,3972,1682087806,134658183,map,-66.3588638305664,37.59957504272461,78.32044982910156,-7.910173212091923e-05,-0.039767716864370826,0.9960624135635987,0.07923578017254124
2023/04/21/09:36:46.344028,3973,1682087806,135540137,map,-66.54618835449219,37.63960266113281,78.3111801147461,-0.0010394769444473596,-0.03826060746480501,0.9964148455108468,0.07544897012753449
2023/04/21/09:36:46.634310,3974,1682087806,234069178,map,-66.81119537353516,37.70989227294922,78.2968521118164,-0.0013582967800080164,-0.03599549094603781,0.9967011069059328,0.07272914969942945
2023/04/21/09:36:46.634327,3975,1682087806,234808567,map,-66.99756622314453,37.757938385009766,78.2860107421875,-0.0012400537965107006,-0.03277990767561128,0.9970655085581579,0.0691688368183202
2023/04/21/09:36:46.634338,3976,1682087806,235446487,map,-67.19851684570312,37.80667495727539,78.27364349365234,-0.00036311485625665834,-0.029797528186351584,0.9974089632266732,0.06547934384652504
2023/04/21/09:36:46.634349,3977,1682087806,334011396,map,-67.3834457397461,37.850826263427734,78.2623291015625,0.0003537925002015199,-0.028623930750319517,0.9975360359749337,0.06405111359103632
2023/04/21/09:36:46.635025,3978,1682087806,334892349,map,-67.62909698486328,37.90700149536133,78.24697875976562,0.000821339344534012,-0.02758505703264154,0.9977482032103374,0.06113092704511064
2023/04/21/09:36:46.635384,3979,1682087806,335653519,map,-67.82795715332031,37.94972229003906,78.23384094238281,0.00034965684069139064,-0.027549483775409327,0.9979052845147376,0.058532615981262526
2023/04/21/09:36:46.839611,3980,1682087806,434553515,map,-68.01446533203125,37.99468994140625,78.22154235839844,-0.00023399666875451833,-0.027836926599342643,0.9979688841091405,0.05729935704698519
2023/04/21/09:36:46.839632,3981,1682087806,435757488,map,-68.27719116210938,38.0538215637207,78.20352935791016,-0.0009644278952286321,-0.028220536677776673,0.9980809947261795,0.05510932250466216
2023/04/21/09:36:46.839648,3982,1682087806,436708417,map,-68.46200561523438,38.09397506713867,78.1904067993164,-0.0016231739178307935,-0.02835283431816335,0.9981723690937511,0.053342610908782506
2023/04/21/09:36:46.839659,3983,1682087806,444561220,map,-68.64620208740234,38.132225036621094,78.17688751220703,-0.0018547313377276786,-0.028435073356320232,0.9982206693821445,0.05237854389594426
2023/04/21/09:36:46.839684,3984,1682087806,539167706,map,-68.90608215332031,38.18267822265625,78.15689086914062,-0.002551850748809992,-0.02841624425174799,0.9982891158641263,0.05103759976372163
2023/04/21/09:36:46.839704,3985,1682087806,548024157,map,-69.08904266357422,38.21685028076172,78.14276885986328,-0.0030659777632811155,-0.028303789874475845,0.9983249828322089,0.05036632690748866
2023/04/21/09:36:46.839717,3986,1682087806,637704680,map,-69.27490997314453,38.254676818847656,78.1292724609375,-0.00351275806509888,-0.02823020411115386,0.9983356459848822,0.050166761579789554
2023/04/21/09:36:46.839737,3987,1682087806,639524700,map,-69.53683471679688,38.304168701171875,78.10960388183594,-0.003943963789302853,-0.02804316298290759,0.9983389755859147,0.05017270428542964
2023/04/21/09:36:46.839749,3988,1682087806,640778406,map,-69.72125244140625,38.337738037109375,78.09561157226562,-0.004081269002128233,-0.02853030020926355,0.9983271323214831,0.050123771794308436
2023/04/21/09:36:47.039031,3989,1682087806,645034473,map,-69.9051284790039,38.369632720947266,78.08137512207031,-0.004173434940198446,-0.02917402088037158,0.9983074075963799,0.05013768025431703
2023/04/21/09:36:47.039047,3990,1682087806,737173899,map,-70.16471862792969,38.41151428222656,78.06187438964844,-0.00409690416583676,-0.031793850544562526,0.9982150638512926,0.050390603492230956
2023/04/21/09:36:47.039059,3991,1682087806,740115626,map,-70.34754180908203,38.43970489501953,78.04875946044922,-0.0047422356368113155,-0.033862328307424125,0.9981531501308301,0.05021261735096938
2023/04/21/09:36:47.039077,3992,1682087806,744717215,map,-70.53631591796875,38.46998596191406,78.03595733642578,-0.004938543803373915,-0.03464292877160537,0.9981188847429907,0.05034120738577624
2023/04/21/09:36:47.039122,3993,1682087806,834620178,map,-70.80035400390625,38.51103591918945,78.01828002929688,-0.0060900497053411945,-0.034971588579204314,0.9981079687092265,0.05020469374344938
2023/04/21/09:36:47.039138,3994,1682087806,836152120,map,-70.9863052368164,38.53863525390625,78.006103515625,-0.007294839760538372,-0.03390415773748217,0.9981443414394913,0.05005208000499145
2023/04/21/09:36:47.039150,3995,1682087806,853662935,map,-71.17178344726562,38.56474304199219,77.99402618408203,-0.008073564689960889,-0.03302820266272305,0.9981870783438813,0.04966508764196437
2023/04/21/09:36:47.039250,3996,1682087806,934324571,map,-71.4334945678711,38.59880828857422,77.97674560546875,-0.008304710519540286,-0.02975127794701145,0.9983009591285578,0.04940875050932114
2023/04/21/09:36:47.039298,3997,1682087806,935261579,map,-71.61802673339844,38.62171936035156,77.9645767211914,-0.00828527094420914,-0.026933763099691713,0.9984080121237755,0.04886117865346762
2023/04/21/09:36:47.039615,3998,1682087806,947900374,map,-71.82673645019531,38.64406967163086,77.95124053955078,-0.007648146254893066,-0.025219254326959845,0.9984601899222318,0.04881464853271156
2023/04/21/09:36:47.143228,3999,1682087807,35069106,map,-72.08308410644531,38.67051315307617,77.93509674072266,-0.006803337042638992,-0.02252669171458474,0.9985500891501057,0.04841581290525304
2023/04/21/09:36:47.143299,4000,1682087807,35764617,map,-72.27426147460938,38.68940353393555,77.92327880859375,-0.006341014431888328,-0.021340414004051466,0.998595397012255,0.04807994466946963
2023/04/21/09:36:47.143436,4001,1682087807,49910759,map,-72.54305267333984,38.714725494384766,77.90696716308594,-0.006336978871143409,-0.021219839772995894,0.9986023512422593,0.047988190980261414
2023/04/21/09:36:47.143451,4002,1682087807,135148640,map,-72.73233795166016,38.731998443603516,77.89567565917969,-0.00633451723177257,-0.022442874145242223,0.9985951019843153,0.04758290688498068
2023/04/21/09:36:47.144562,4003,1682087807,135848581,map,-72.85810852050781,38.74315643310547,77.88812255859375,-0.006518284735269656,-0.025134438404143224,0.998547728926589,0.047205439709717134
2023/04/21/09:36:47.345835,4004,1682087807,145992209,map,-73.12860870361328,38.762237548828125,77.8725357055664,-0.006589061147720592,-0.026342465864141646,0.9985390888226443,0.04671674700123335
2023/04/21/09:36:47.345860,4005,1682087807,234434163,map,-73.38355255126953,38.77830123901367,77.85844421386719,-0.006191642049498671,-0.027984647352106276,0.9985325139142767,0.045949000008758845
2023/04/21/09:36:47.346035,4006,1682087807,241069022,map,-73.52564239501953,38.78730010986328,77.85032653808594,-0.005621874609548085,-0.028424778988571445,0.9985786647133961,0.04473327416346212
2023/04/21/09:36:47.346060,4007,1682087807,255967952,map,-73.7782974243164,38.802608489990234,77.83607482910156,-0.005134309329261936,-0.028114320034084136,0.9986096847939001,0.04429469405785774
2023/04/21/09:36:47.346364,4008,1682087807,334613865,map,-73.96683502197266,38.81376266479492,77.82543182373047,-0.004353446764366505,-0.027460380069301238,0.9987008905740776,0.04270365052657149
2023/04/21/09:36:47.346438,4009,1682087807,335903309,map,-74.23233032226562,38.829200744628906,77.81024932861328,-0.0037406012939707424,-0.027593352059264088,0.9988012000735336,0.0402598076625158
2023/04/21/09:36:47.438657,4010,1682087807,347283146,map,-74.42438507080078,38.84567642211914,77.79964447021484,-0.0035860303612350692,-0.027579641162607887,0.9988345803775542,0.039448227947590064
2023/04/21/09:36:47.438692,4011,1682087807,433882909,map,-74.6307144165039,38.86231994628906,77.787841796875,-0.0037955120521353564,-0.027203184194619565,0.998944035743137,0.036831119389306166
2023/04/21/09:36:47.445325,4012,1682087807,435920691,map,-74.88412475585938,38.882022857666016,77.7730941772461,-0.0043865070157562535,-0.026654449349164933,0.9990526060249011,0.03412149849854068
2023/04/21/09:36:47.542886,4013,1682087807,452166230,map,-75.07330322265625,38.89598846435547,77.76179504394531,-0.004660833608724076,-0.026320600869387603,0.9991157420039704,0.03245501210842
2023/04/21/09:36:47.542900,4014,1682087807,534048376,map,-75.27690887451172,38.910091400146484,77.7486572265625,-0.005033615898357853,-0.025803837042706515,0.9992043768263887,0.029992076721988892
2023/04/21/09:36:47.543061,4015,1682087807,536711288,map,-75.52709197998047,38.92657470703125,77.7320327758789,-0.005167013966617373,-0.025776714887145245,0.9992812105312241,0.02731377093966708
2023/04/21/09:36:47.638954,4016,1682087807,549186532,map,-75.7225570678711,38.940879821777344,77.71967315673828,-0.0051331298760481404,-0.02623532594104892,0.9993014831653579,0.026115746770744908
2023/04/21/09:36:47.638971,4017,1682087807,635513538,map,-75.99664306640625,38.95915603637695,77.70179748535156,-0.0048550390426726885,-0.027255886194504406,0.9993376030145318,0.023622549947083016
2023/04/21/09:36:47.642857,4018,1682087807,638895352,map,-76.18959045410156,38.97113037109375,77.68901062011719,-0.004784097994094757,-0.02845795382670558,0.9993644084101847,0.02093265378142073
2023/04/21/09:36:47.649546,4019,1682087807,647476037,map,-76.38170623779297,38.98216247558594,77.67620849609375,-0.005035062720641895,-0.02862595775031509,0.9993874205894715,0.019492833142591537
2023/04/21/09:36:47.836255,4020,1682087807,737284637,map,-76.65210723876953,38.99593734741211,77.65868377685547,-0.0051925095172439244,-0.02617495321473509,0.9995011749336025,0.016891318918256626
2023/04/21/09:36:47.836269,4021,1682087807,738212813,map,-76.84249877929688,39.00455093383789,77.6463851928711,-0.00607281361993376,-0.023400208857575308,0.9995967639860253,0.014895244172780597
2023/04/21/09:36:47.836972,4022,1682087807,834169125,map,-77.04903411865234,39.020938873291016,77.6320571899414,-0.006158338795185476,-0.02162932867496012,0.9996494896935124,0.013970247288512039
2023/04/21/09:36:47.845048,4023,1682087807,835441942,map,-77.3024673461914,39.03947448730469,77.61306762695312,-0.007241505557925865,-0.020850680795245036,0.9996810155361985,0.0122741738107367
2023/04/21/09:36:47.845064,4024,1682087807,836898581,map,-77.49160766601562,39.0514030456543,77.59789276123047,-0.00773419760720666,-0.0222721379204691,0.9996576240352749,0.011352211499560838
2023/04/21/09:36:47.934989,4025,1682087807,934151845,map,-77.69538116455078,39.06193923950195,77.58126831054688,-0.007823174214224711,-0.02327020756188796,0.9996361291425344,0.011177554959331759
2023/04/21/09:36:47.943276,4026,1682087807,935187604,map,-77.94864654541016,39.07341766357422,77.56056213378906,-0.007167115053215123,-0.024945251079345438,0.9995969325734193,0.011505878909231548
2023/04/21/09:36:47.943290,4027,1682087807,936633344,map,-78.13568878173828,39.080474853515625,77.5452880859375,-0.006824401247271326,-0.0271046863511051,0.9995315628113789,0.012472179705040831
2023/04/21/09:36:48.136337,4028,1682087807,948804338,map,-78.34151458740234,39.096771240234375,77.53019714355469,-0.006922736430292323,-0.027734532806518945,0.999505094590514,0.01313531821951125
2023/04/21/09:36:48.136582,4029,1682087808,35086202,map,-78.5943603515625,39.115318298339844,77.51289367675781,-0.006985892824241389,-0.027417591798439563,0.9994899638718986,0.014808505958545215
