time,.header.seq,.header.stamp.secs,.header.stamp.nsecs,.header.frame_id,.airspeed,.groundspeed,.heading,.throttle,.altitude,.climb
2023/04/21/09:36:12.744160,1304,1682087772,639151183,,14.321671485900879,14.983124732971191,158,0.5400000214576721,350.1083068847656,1.913582682609558
2023/04/21/09:36:13.040221,1305,1682087772,735566869,,14.328476905822754,15.006916046142578,157,0.5400000214576721,350.4898986816406,1.6775238513946533
2023/04/21/09:36:13.040238,1306,1682087772,835244571,,14.345732688903809,15.03165340423584,157,0.5400000214576721,350.70855712890625,1.6504108905792236
2023/04/21/09:36:13.040249,1307,1682087772,935754742,,14.362526893615723,15.052956581115723,157,0.5400000214576721,350.87628173828125,1.633741021156311
2023/04/21/09:36:13.237890,1308,1682087773,36852441,,14.393500328063965,15.04067325592041,156,0.5400000214576721,351.0856628417969,1.9840036630630493
2023/04/21/09:36:13.238081,1309,1682087773,134082900,,14.433154106140137,15.06168270111084,156,0.5400000214576721,351.351806640625,2.216567277908325
2023/04/21/09:36:13.335157,1310,1682087773,235667723,,14.492761611938477,15.114297866821289,155,0.5400000214576721,351.57989501953125,2.3353962898254395
2023/04/21/09:36:13.345032,1311,1682087773,335379000,,14.554869651794434,15.188211441040039,155,0.5400000214576721,351.846923828125,2.426846504211426
2023/04/21/09:36:13.546325,1312,1682087773,436146291,,14.620231628417969,15.275113105773926,155,0.5400000214576721,352.1102600097656,2.4330735206604004
2023/04/21/09:36:13.637147,1313,1682087773,539934776,,14.646706581115723,15.35787582397461,156,0.5400000214576721,352.4049072265625,2.155940532684326
2023/04/21/09:36:13.744825,1314,1682087773,640327250,,14.684648513793945,15.412442207336426,157,0.5400000214576721,352.63092041015625,2.100738286972046
2023/04/21/09:36:13.934510,1315,1682087773,743992346,,14.74255657196045,15.499715805053711,157,0.5400000214576721,352.9029846191406,2.103342056274414
2023/04/21/09:36:14.038628,1316,1682087773,941054421,,14.835555076599121,15.640190124511719,156,0.5400000214576721,353.14373779296875,2.0850329399108887
2023/04/21/09:36:14.244531,1317,1682087774,39371448,,14.989344596862793,15.847058296203613,156,0.5400000214576721,353.393310546875,2.0905988216400146
2023/04/21/09:36:14.244551,1318,1682087774,239183384,,15.236564636230469,16.198392868041992,157,0.5400000214576721,353.81573486328125,1.6650786399841309
2023/04/21/09:36:14.634269,1319,1682087774,543416780,,15.319073677062988,16.31993293762207,158,0.5299999713897705,354.02093505859375,1.467995285987854
2023/04/21/09:36:14.938257,1320,1682087774,835347798,,15.517312049865723,16.5444393157959,163,0.49000000953674316,354.7830505371094,1.6903624534606934
2023/04/21/09:36:15.137457,1321,1682087774,945422282,,15.621841430664062,16.698183059692383,161,0.46000000834465027,354.99664306640625,1.763314127922058
2023/04/21/09:36:15.235005,1322,1682087775,139365932,,16.013822555541992,17.350177764892578,146,0.4399999976158142,355.5564270019531,1.584989070892334
2023/04/21/09:36:15.342746,1323,1682087775,144170595,,16.19548225402832,17.61446762084961,142,0.4399999976158142,355.7169189453125,1.4393982887268066
2023/04/21/09:36:15.343043,1324,1682087775,239413682,,16.35325813293457,17.88914680480957,137,0.4399999976158142,355.8779602050781,1.1889171600341797
2023/04/21/09:36:15.839465,1325,1682087775,339876042,,16.514877319335938,18.194957733154297,131,0.4399999976158142,356.02606201171875,0.8859965801239014
2023/04/21/09:36:15.839736,1326,1682087775,542040189,,16.686765670776367,18.444320678710938,127,0.44999998807907104,356.1302490234375,0.6770499348640442
2023/04/21/09:36:15.839762,1327,1682087775,735387751,,16.820768356323242,18.67035484313965,124,0.44999998807907104,356.2240295410156,0.46068042516708374
2023/04/21/09:36:15.839956,1328,1682087775,836023883,,16.985116958618164,18.950742721557617,121,0.44999998807907104,356.31072998046875,0.3993109166622162
2023/04/21/09:36:18.045627,1329,1682087775,937854019,,17.297473907470703,19.450403213500977,115,0.4399999976158142,356.544921875,0.5869334936141968
2023/04/21/09:36:18.045717,1330,1682087776,39552365,,15.827969551086426,18.068193435668945,96,0.4399999976158142,356.701171875,0.7599785327911377
2023/04/21/09:36:18.045883,1331,1682087776,137156821,,15.862954139709473,18.139101028442383,93,0.4399999976158142,356.8075256347656,0.9009959101676941
2023/04/21/09:36:18.046032,1332,1682087776,239443217,,15.878887176513672,18.18500328063965,89,0.4399999976158142,356.9107666015625,1.0395643711090088
2023/04/21/09:36:18.046056,1333,1682087776,338017004,,15.875855445861816,18.209985733032227,86,0.4399999976158142,357.0551452636719,1.1338247060775757
2023/04/21/09:36:18.134930,1334,1682087776,440612853,,15.80718994140625,18.18695640563965,84,0.4399999976158142,357.1763916015625,1.0949064493179321
2023/04/21/09:36:18.134961,1335,1682087776,540468586,,15.750174522399902,18.159868240356445,82,0.4399999976158142,357.32318115234375,1.0446542501449585
2023/04/21/09:36:18.134983,1336,1682087776,742488491,,15.680242538452148,18.1346492767334,82,0.4399999976158142,357.45855712890625,1.0295829772949219
2023/04/21/09:36:18.135212,1337,1682087776,836700909,,15.630595207214355,18.1025390625,81,0.4399999976158142,357.58447265625,1.115875005722046
2023/04/21/09:36:18.135486,1338,1682087776,936743686,,15.478633880615234,17.96546745300293,78,0.4399999976158142,357.9221496582031,1.4522300958633423
2023/04/21/09:36:18.135514,1339,1682087777,36574707,,15.379792213439941,17.876611709594727,75,0.4399999976158142,358.0973815917969,1.4311118125915527
2023/04/21/09:36:18.135535,1340,1682087777,136865824,,15.265443801879883,17.789188385009766,73,0.4399999976158142,358.25091552734375,1.4916998147964478
2023/04/21/09:36:18.135750,1341,1682087777,236172048,,15.142219543457031,17.65778160095215,70,0.4399999976158142,358.4553527832031,1.5856493711471558
2023/04/21/09:36:18.135779,1342,1682087777,336921869,,15.01343822479248,17.547121047973633,67,0.4399999976158142,358.63494873046875,1.3671001195907593
2023/04/21/09:36:18.135800,1343,1682087777,437267701,,14.85462474822998,17.377479553222656,64,0.4399999976158142,358.7967529296875,1.2836859226226807
2023/04/21/09:36:18.136069,1344,1682087777,537058463,,14.666247367858887,17.16547966003418,60,0.4399999976158142,358.9624328613281,1.4582545757293701
2023/04/21/09:36:18.136103,1345,1682087777,635800623,,14.418915748596191,16.944299697875977,57,0.4399999976158142,359.1229248046875,1.4882482290267944
2023/04/21/09:36:18.136235,1346,1682087777,736129450,,14.193110466003418,16.707239151000977,54,0.4399999976158142,359.2992248535156,1.4454959630966187
2023/04/21/09:36:18.136276,1347,1682087777,844485425,,13.946876525878906,16.445587158203125,51,0.4399999976158142,359.4892578125,1.6107295751571655
2023/04/21/09:36:18.136643,1348,1682087777,941415163,,13.730789184570312,16.194738388061523,49,0.4399999976158142,359.7210998535156,1.72877836227417
2023/04/21/09:36:22.344890,1349,1682087778,45171009,,13.530704498291016,15.98812198638916,47,0.4399999976158142,359.9380798339844,1.7742232084274292
2023/04/21/09:36:22.344903,1350,1682087778,139091521,,13.373117446899414,15.821977615356445,46,0.4399999976158142,360.13970947265625,1.8364784717559814
2023/04/21/09:36:22.344937,1351,1682087778,236569022,,13.185730934143066,15.62745475769043,44,0.4399999976158142,360.365966796875,1.8390944004058838
2023/04/21/09:36:22.344966,1352,1682087778,336368365,,13.009391784667969,15.449145317077637,42,0.4399999976158142,360.5838928222656,1.8066257238388062
2023/04/21/09:36:22.344990,1353,1682087778,537794786,,12.814291954040527,15.262210845947266,38,0.4399999976158142,360.807861328125,1.5191611051559448
2023/04/21/09:36:22.345009,1354,1682087778,544318570,,12.608811378479004,15.069408416748047,34,0.4399999976158142,360.98187255859375,1.2464174032211304
2023/04/21/09:36:22.345025,1355,1682087778,640899948,,12.393741607666016,14.875521659851074,31,0.4399999976158142,361.13067626953125,1.1260898113250732
2023/04/21/09:36:22.345043,1356,1682087778,742972858,,12.203028678894043,14.651808738708496,27,0.4399999976158142,361.2880554199219,0.8440403342247009
2023/04/21/09:36:22.345063,1357,1682087778,839479185,,11.998621940612793,14.460777282714844,24,0.4399999976158142,361.3927001953125,0.6010485291481018
2023/04/21/09:36:22.345078,1358,1682087778,937320200,,11.780641555786133,14.234851837158203,21,0.4399999976158142,361.5006103515625,0.47565963864326477
2023/04/21/09:36:22.345095,1359,1682087779,39674407,,11.60582447052002,14.043583869934082,18,0.4399999976158142,361.5870666503906,0.4986342489719391
2023/04/21/09:36:22.345114,1360,1682087779,137717858,,11.421062469482422,13.824905395507812,15,0.4399999976158142,361.6793212890625,0.5022929906845093
2023/04/21/09:36:22.345140,1361,1682087779,237335343,,11.206457138061523,13.611177444458008,12,0.4399999976158142,361.766357421875,0.41802576184272766
2023/04/21/09:36:22.345157,1362,1682087779,337047540,,11.008207321166992,13.387716293334961,10,0.4399999976158142,361.8388366699219,0.29574811458587646
2023/04/21/09:36:22.345181,1363,1682087779,436513406,,10.803694725036621,13.152853965759277,7,0.4399999976158142,361.89739990234375,0.11346180737018585
2023/04/21/09:36:22.345202,1364,1682087779,537616583,,10.602048873901367,12.909969329833984,5,0.4399999976158142,361.94036865234375,-0.0011988083133473992
2023/04/21/09:36:22.345230,1365,1682087779,636621966,,10.431620597839355,12.695149421691895,4,0.4399999976158142,361.97308349609375,-0.0933849960565567
2023/04/21/09:36:22.345261,1366,1682087779,736993787,,10.308438301086426,12.52895736694336,2,0.4399999976158142,361.9906005859375,-0.20872627198696136
2023/04/21/09:36:22.345281,1367,1682087779,839317599,,10.201325416564941,12.375805854797363,359,0.4399999976158142,362.00152587890625,-0.23285169899463654
2023/04/21/09:36:22.345296,1368,1682087779,937206423,,10.101984977722168,12.229289054870605,356,0.4399999976158142,362.0080261230469,-0.16289426386356354
2023/04/21/09:36:22.345307,1369,1682087780,38938541,,9.999755859375,12.077760696411133,353,0.4399999976158142,362.0165100097656,-0.07659586519002914
2023/04/21/09:36:22.345327,1370,1682087780,137592261,,9.889335632324219,11.916461944580078,348,0.4399999976158142,362.027587890625,-0.04298835247755051
2023/04/21/09:36:22.345355,1371,1682087780,236689167,,9.74105167388916,11.712194442749023,343,0.4399999976158142,362.03900146484375,-0.0728333592414856
2023/04/21/09:36:22.345495,1372,1682087780,340546170,,9.550816535949707,11.452062606811523,339,0.4399999976158142,362.04400634765625,0.011496823281049728
2023/04/21/09:36:22.434768,1373,1682087780,437091068,,9.321332931518555,11.125086784362793,335,0.4399999976158142,362.0779113769531,0.3178711235523224
2023/04/21/09:36:22.435243,1374,1682087780,537531071,,9.127706527709961,10.845315933227539,333,0.4399999976158142,362.1316833496094,0.4337329864501953
2023/04/21/09:36:22.435348,1375,1682087780,635826309,,8.923837661743164,10.550918579101562,330,0.4399999976158142,362.1966857910156,0.5475690364837646
2023/04/21/09:36:22.435373,1376,1682087780,736040661,,8.752415657043457,10.261659622192383,327,0.4399999976158142,362.27191162109375,0.6837586164474487
2023/04/21/09:36:22.435387,1377,1682087780,836771256,,8.549538612365723,9.993521690368652,324,0.4399999976158142,362.3572998046875,0.7651911377906799
2023/04/21/09:36:22.435415,1378,1682087780,938337938,,8.425310134887695,9.790534019470215,322,0.4399999976158142,362.446533203125,0.7613910436630249
2023/04/21/09:36:22.435429,1379,1682087781,38509828,,8.303204536437988,9.606362342834473,321,0.4399999976158142,362.533935546875,0.7090858817100525
2023/04/21/09:36:22.435448,1380,1682087781,135271624,,8.166799545288086,9.435190200805664,320,0.4399999976158142,362.608154296875,0.5822942852973938
2023/04/21/09:36:22.435464,1381,1682087781,235079322,,8.063139915466309,9.28381061553955,319,0.4399999976158142,362.67254638671875,0.46772122383117676
2023/04/21/09:36:22.435485,1382,1682087781,336256332,,7.987995147705078,9.164180755615234,319,0.4399999976158142,362.7210693359375,0.30492785573005676
2023/04/21/09:36:22.435500,1383,1682087781,438782744,,7.91057825088501,9.05463981628418,319,0.4399999976158142,362.7571105957031,0.21457137167453766
2023/04/21/09:36:22.435512,1384,1682087781,535958756,,7.828080654144287,8.930208206176758,319,0.4399999976158142,362.7794189453125,0.08058953285217285
2023/04/21/09:36:22.435526,1385,1682087781,642481429,,7.770716190338135,8.821600914001465,319,0.4399999976158142,362.78076171875,-0.08238198608160019
2023/04/21/09:36:22.435539,1386,1682087781,738953220,,7.675986289978027,8.723030090332031,318,0.4399999976158142,362.769287109375,-0.11974764615297318
2023/04/21/09:36:22.435584,1387,1682087781,838300735,,7.612105846405029,8.623977661132812,317,0.4399999976158142,362.750732421875,-0.14120043814182281
2023/04/21/09:36:22.435603,1388,1682087782,35550451,,7.561716079711914,8.506272315979004,316,0.4399999976158142,362.72503662109375,-0.1900792419910431
2023/04/21/09:36:22.435639,1389,1682087782,135032422,,7.525340557098389,8.39393138885498,315,0.4399999976158142,362.6890869140625,-0.23656630516052246
2023/04/21/09:36:22.436643,1390,1682087782,139181432,,7.4952802658081055,8.28725814819336,313,0.4399999976158142,362.6513977050781,-0.25264298915863037
2023/04/21/09:36:22.535085,1391,1682087782,236596121,,7.461397171020508,8.166550636291504,310,0.4399999976158142,362.6103515625,-0.2752915620803833
2023/04/21/09:36:22.634795,1392,1682087782,438551805,,7.454719543457031,8.064168930053711,307,0.4399999976158142,362.5635681152344,-0.3996736705303192
2023/04/21/09:36:22.644790,1393,1682087782,537345146,,7.468532085418701,7.982516765594482,305,0.4399999976158142,362.50396728515625,-0.5111480355262756
2023/04/21/09:36:22.644824,1394,1682087782,547061518,,7.490143775939941,7.916153907775879,304,0.4399999976158142,362.4362487792969,-0.5714904069900513
2023/04/21/09:36:22.743103,1395,1682087782,642826702,,7.539586067199707,7.859347343444824,304,0.4399999976158142,362.3610534667969,-0.5710349678993225
2023/04/21/09:36:22.838394,1396,1682087782,741675454,,7.600289344787598,7.820767879486084,303,0.4399999976158142,362.2852783203125,-0.7497615218162537
2023/04/21/09:36:23.042971,1397,1682087782,840948519,,7.672591686248779,7.8104376792907715,304,0.44999998807907104,362.1890869140625,-0.8829361796379089
2023/04/21/09:36:23.234348,1398,1682087783,41595837,,7.7271952629089355,7.8021087646484375,305,0.44999998807907104,362.0802001953125,-1.1011499166488647
2023/04/21/09:36:23.335790,1399,1682087783,140086254,,7.772662162780762,7.843310832977295,308,0.44999998807907104,361.9632263183594,-0.9478724002838135
2023/04/21/09:36:23.335813,1400,1682087783,146494582,,7.811497688293457,7.889091491699219,309,0.44999998807907104,361.8729553222656,-0.632904589176178
2023/04/21/09:36:23.438626,1401,1682087783,334986524,,7.848766803741455,7.916934490203857,311,0.44999998807907104,361.7967529296875,-0.5786495804786682
2023/04/21/09:36:23.534079,1402,1682087783,339477956,,7.884382724761963,7.930873870849609,312,0.4399999976158142,361.7143859863281,-0.7084915041923523
2023/04/21/09:36:23.642666,1403,1682087783,538103534,,7.894270896911621,7.944345951080322,313,0.4399999976158142,361.6298828125,-0.6852649450302124
2023/04/21/09:36:23.837479,1404,1682087783,637229884,,7.923395156860352,7.983642101287842,315,0.4399999976158142,361.54949951171875,-0.6196171045303345
2023/04/21/09:36:24.035390,1405,1682087783,742115577,,7.97221565246582,8.049156188964844,317,0.4399999976158142,361.4729309082031,-0.5495064854621887
2023/04/21/09:36:24.035406,1406,1682087783,838756235,,8.008535385131836,8.108355522155762,317,0.4399999976158142,361.39892578125,-0.5725929141044617
2023/04/21/09:36:24.234740,1407,1682087784,39504738,,8.037492752075195,8.152400970458984,313,0.4399999976158142,361.2243347167969,-0.6621724963188171
2023/04/21/09:36:24.443187,1408,1682087784,142636095,,8.032695770263672,8.140386581420898,311,0.4399999976158142,361.1462707519531,-0.6094776391983032
2023/04/21/09:36:24.443207,1409,1682087784,237655363,,8.055204391479492,8.134897232055664,309,0.4399999976158142,361.0633544921875,-0.7068055868148804
2023/04/21/09:36:24.734056,1410,1682087784,440065293,,8.07762336730957,8.128466606140137,307,0.4399999976158142,360.9099426269531,-0.6472069025039673
2023/04/21/09:36:24.938561,1411,1682087784,538370814,,8.095977783203125,8.148479461669922,307,0.4399999976158142,360.84710693359375,-0.5684372186660767
2023/04/21/09:36:24.938581,1412,1682087784,641092695,,8.148128509521484,8.225102424621582,309,0.44999998807907104,360.74078369140625,-0.45374244451522827
2023/04/21/09:36:25.235411,1413,1682087784,835986975,,8.165616035461426,8.267264366149902,309,0.44999998807907104,360.7054443359375,-0.31386300921440125
2023/04/21/09:36:25.235485,1414,1682087784,935561669,,8.193366050720215,8.322175979614258,310,0.44999998807907104,360.6787414550781,-0.1806209534406662
2023/04/21/09:36:25.235501,1415,1682087784,939455033,,8.202994346618652,8.359112739562988,311,0.44999998807907104,360.65692138671875,-0.1491105556488037
2023/04/21/09:36:25.537287,1416,1682087785,136131622,,8.224857330322266,8.395869255065918,311,0.44999998807907104,360.6329650878906,-0.22137057781219482
2023/04/21/09:36:25.537304,1417,1682087785,143948908,,8.234038352966309,8.417140007019043,311,0.44999998807907104,360.6078186035156,-0.16534487903118134
2023/04/21/09:36:25.734741,1418,1682087785,343955144,,8.256753921508789,8.45559310913086,310,0.44999998807907104,360.55999755859375,-0.2622285783290863
2023/04/21/09:36:25.734792,1419,1682087785,448117197,,8.264166831970215,8.469467163085938,310,0.44999998807907104,360.52850341796875,-0.19011464715003967
2023/04/21/09:36:25.734815,1420,1682087785,540960647,,8.283750534057617,8.483542442321777,310,0.44999998807907104,360.5110168457031,-0.08710561692714691
2023/04/21/09:36:26.038480,1421,1682087785,645120695,,8.300673484802246,8.497297286987305,309,0.44999998807907104,360.50469970703125,-0.018502844497561455
2023/04/21/09:36:26.339966,1422,1682087785,940978669,,8.309837341308594,8.50711727142334,309,0.44999998807907104,360.503662109375,-0.04661090672016144
2023/04/21/09:36:26.842932,1423,1682087786,42980352,,8.33537769317627,8.538263320922852,309,0.44999998807907104,360.50189208984375,-0.12637481093406677
2023/04/21/09:36:26.842961,1424,1682087786,243908909,,8.381183624267578,8.601347923278809,310,0.44999998807907104,360.483154296875,-0.08101207762956619
2023/04/21/09:36:26.842992,1425,1682087786,346894447,,8.391261100769043,8.608477592468262,310,0.44999998807907104,360.495849609375,0.11372790485620499
2023/04/21/09:36:27.336276,1426,1682087786,443695675,,8.401361465454102,8.617088317871094,310,0.44999998807907104,360.543212890625,0.23250319063663483
2023/04/21/09:36:27.336303,1427,1682087786,646836524,,8.423023223876953,8.631911277770996,310,0.44999998807907104,360.57928466796875,0.40229275822639465
2023/04/21/09:36:27.337339,1428,1682087786,845471904,,8.431735038757324,8.63216495513916,310,0.44999998807907104,360.6315612792969,0.5600469708442688
2023/04/21/09:36:27.839954,1429,1682087786,946382289,,8.43700885772705,8.633652687072754,312,0.44999998807907104,360.8441467285156,0.6693246364593506
2023/04/21/09:36:27.839981,1430,1682087787,137561181,,8.42485237121582,8.625041007995605,312,0.44999998807907104,360.922607421875,0.6949424147605896
2023/04/21/09:36:27.840041,1431,1682087787,233981758,,8.40804672241211,8.616082191467285,312,0.44999998807907104,360.99951171875,0.6116397976875305
2023/04/21/09:36:27.840076,1432,1682087787,244535000,,8.392212867736816,8.607269287109375,312,0.44999998807907104,361.0636901855469,0.5276995897293091
2023/04/21/09:36:27.840334,1433,1682087787,436378514,,8.383056640625,8.605937004089355,312,0.44999998807907104,361.1183166503906,0.4225023686885834
2023/04/21/09:36:28.241175,1434,1682087787,638250600,,8.383606910705566,8.609201431274414,311,0.44999998807907104,361.160888671875,0.33743593096733093
2023/04/21/09:36:28.241227,1435,1682087787,645981975,,8.388724327087402,8.613219261169434,310,0.44999998807907104,361.194580078125,0.23914191126823425
2023/04/21/09:36:28.241286,1436,1682087787,836345604,,8.42619514465332,8.642013549804688,309,0.44999998807907104,361.23944091796875,0.1356876790523529
2023/04/21/09:36:28.241313,1437,1682087787,845300635,,8.460844993591309,8.658336639404297,309,0.44999998807907104,361.25823974609375,0.09065526723861694
2023/04/21/09:36:28.835196,1438,1682087788,42467977,,8.498164176940918,8.688993453979492,309,0.44999998807907104,361.2716979980469,0.062097374349832535
2023/04/21/09:36:28.835238,1439,1682087788,135713032,,8.534961700439453,8.719436645507812,309,0.44999998807907104,361.2798767089844,0.04683523625135422
2023/04/21/09:36:28.835265,1440,1682087788,241978344,,8.597253799438477,8.762823104858398,309,0.44999998807907104,361.30340576171875,0.10505014657974243
2023/04/21/09:36:28.835296,1441,1682087788,439744255,,8.615859031677246,8.773412704467773,309,0.44999998807907104,361.32440185546875,0.18931613862514496
2023/04/21/09:36:29.535324,1442,1682087788,546048998,,8.640702247619629,8.794116020202637,309,0.44999998807907104,361.3563232421875,0.3303135335445404
2023/04/21/09:36:29.535540,1443,1682087788,548858907,,8.672913551330566,8.828007698059082,309,0.44999998807907104,361.40069580078125,0.4328307509422302
2023/04/21/09:36:29.535588,1444,1682087788,745353857,,8.709424018859863,8.870450019836426,309,0.44999998807907104,361.4588623046875,0.5030606985092163
2023/04/21/09:36:29.535620,1445,1682087788,840281224,,8.757120132446289,8.909475326538086,310,0.44999998807907104,361.5226135253906,0.6360888481140137
2023/04/21/09:36:29.535644,1446,1682087788,938178768,,8.889161109924316,9.034400939941406,309,0.44999998807907104,361.70550537109375,0.9471942782402039
2023/04/21/09:36:29.535752,1447,1682087789,37566156,,8.914645195007324,9.055193901062012,309,0.44999998807907104,361.79913330078125,0.9234533905982971
2023/04/21/09:36:29.740691,1448,1682087789,138294553,,8.948596954345703,9.058308601379395,308,0.44999998807907104,361.9036865234375,1.0754749774932861
2023/04/21/09:36:29.740741,1449,1682087789,238723539,,8.972286224365234,9.064709663391113,307,0.44999998807907104,362.0274963378906,1.2386863231658936
2023/04/21/09:36:29.740780,1450,1682087789,340146497,,8.988554000854492,9.072220802307129,306,0.44999998807907104,362.15960693359375,1.3391419649124146
2023/04/21/09:36:30.143835,1451,1682087789,440166119,,9.016565322875977,9.096312522888184,307,0.44999998807907104,362.30670166015625,1.4655970335006714
2023/04/21/09:36:30.143862,1452,1682087789,539759475,,9.043240547180176,9.14631462097168,308,0.44999998807907104,362.4542541503906,1.3811782598495483
2023/04/21/09:36:30.143886,1453,1682087789,645126020,,9.125984191894531,9.223505973815918,308,0.44999998807907104,362.59881591796875,1.5267475843429565
2023/04/21/09:36:30.145145,1454,1682087789,746744596,,9.171332359313965,9.273896217346191,309,0.44999998807907104,362.75323486328125,1.442431092262268
2023/04/21/09:36:30.634472,1455,1682087790,36167415,,9.189417839050293,9.314109802246094,310,0.44999998807907104,362.8912353515625,1.3310422897338867
2023/04/21/09:36:30.634526,1456,1682087790,144100600,,9.208090782165527,9.346651077270508,313,0.44999998807907104,363.0292663574219,1.3538792133331299
2023/04/21/09:36:30.634550,1457,1682087790,336357800,,9.25356674194336,9.407299041748047,319,0.44999998807907104,363.4699401855469,1.5394959449768066
2023/04/21/09:36:30.834659,1458,1682087790,443350829,,9.25899600982666,9.42410659790039,319,0.44999998807907104,363.62786865234375,1.6260135173797607
2023/04/21/09:36:30.939220,1459,1682087790,639292529,,9.26185417175293,9.431549072265625,319,0.44999998807907104,363.78936767578125,1.6662174463272095
2023/04/21/09:36:30.939248,1460,1682087790,742440059,,9.255690574645996,9.426640510559082,318,0.44999998807907104,363.953369140625,1.6285061836242676
2023/04/21/09:36:31.238320,1461,1682087790,938870268,,9.299609184265137,9.448473930358887,316,0.44999998807907104,364.4546203613281,1.7417296171188354
2023/04/21/09:36:31.534294,1462,1682087791,41440913,,9.345521926879883,9.477632522583008,315,0.44999998807907104,364.6292419433594,1.7780207395553589
2023/04/21/09:36:31.534330,1463,1682087791,143234106,,9.386123657226562,9.50455379486084,314,0.44999998807907104,364.8091125488281,1.7750248908996582
2023/04/21/09:36:31.940900,1464,1682087791,440620797,,9.429476737976074,9.538066864013672,314,0.44999998807907104,364.9894104003906,1.7666467428207397
2023/04/21/09:36:31.941166,1465,1682087791,635698298,,9.59434700012207,9.638798713684082,316,0.41999998688697815,365.780029296875,2.066772937774658
2023/04/21/09:36:32.438721,1466,1682087791,738197619,,9.58278751373291,9.600981712341309,315,0.3799999952316284,365.99114990234375,2.1608150005340576
2023/04/21/09:36:32.438739,1467,1682087791,942009122,,9.555102348327637,9.551891326904297,314,0.3799999952316284,366.1859130859375,2.2156314849853516
2023/04/21/09:36:32.636226,1468,1682087792,236558735,,9.298261642456055,9.227896690368652,315,0.3799999952316284,367.1106262207031,2.2710001468658447
2023/04/21/09:36:32.636240,1469,1682087792,434691063,,9.186415672302246,9.157258987426758,314,0.3799999952316284,367.33099365234375,2.0580897331237793
2023/04/21/09:36:32.636828,1470,1682087792,442903301,,9.069186210632324,9.075705528259277,313,0.3799999952316284,367.5308837890625,1.851844310760498
2023/04/21/09:36:32.740535,1471,1682087792,538268229,,8.88744831085205,8.915464401245117,312,0.3799999952316284,367.8994445800781,1.645920753479004
2023/04/21/09:36:32.740547,1472,1682087792,637522478,,8.794328689575195,8.84464168548584,312,0.3799999952316284,368.06219482421875,1.4463465213775635
2023/04/21/09:36:32.935800,1473,1682087792,737396859,,8.72092342376709,8.788861274719238,312,0.3799999952316284,368.2093505859375,1.2736390829086304
2023/04/21/09:36:32.941644,1474,1682087792,836933451,,8.659100532531738,8.731764793395996,312,0.3799999952316284,368.339599609375,1.1469615697860718
2023/04/21/09:36:32.947823,1475,1682087792,935742026,,8.608368873596191,8.684856414794922,313,0.3799999952316284,368.45623779296875,1.0255153179168701
2023/04/21/09:36:33.141774,1476,1682087793,36389419,,8.569565773010254,8.652734756469727,313,0.3799999952316284,368.5590515136719,0.9194268584251404
2023/04/21/09:36:33.141973,1477,1682087793,140305050,,8.524548530578613,8.614907264709473,313,0.3799999952316284,368.6541748046875,0.7512121200561523
2023/04/21/09:36:33.734074,1478,1682087793,243903412,,8.488997459411621,8.591174125671387,314,0.3799999952316284,368.71807861328125,0.6142076849937439
2023/04/21/09:36:33.734187,1479,1682087793,439021246,,8.45971965789795,8.569852828979492,314,0.3799999952316284,368.77398681640625,0.5007765293121338
2023/04/21/09:36:33.735783,1480,1682087793,546399171,,8.455743789672852,8.567601203918457,315,0.3799999952316284,368.8170471191406,0.42264610528945923
2023/04/21/09:36:33.842261,1481,1682087793,736960401,,8.448980331420898,8.563947677612305,315,0.3799999952316284,368.85394287109375,0.3550055921077728
2023/04/21/09:36:34.036680,1482,1682087793,842745233,,8.453067779541016,8.574614524841309,314,0.3799999952316284,368.91998291015625,0.19614830613136292
2023/04/21/09:36:34.337761,1483,1682087794,39345805,,8.448373794555664,8.573247909545898,313,0.3799999952316284,368.93157958984375,0.1427871733903885
2023/04/21/09:36:34.934582,1484,1682087794,137039686,,8.449456214904785,8.578158378601074,313,0.3799999952316284,368.943115234375,0.1546001136302948
2023/04/21/09:36:34.934606,1485,1682087794,148765406,,8.464695930480957,8.594966888427734,313,0.3799999952316284,368.95111083984375,0.10382901877164841
2023/04/21/09:36:34.934618,1486,1682087794,345882172,,8.475628852844238,8.609498977661133,314,0.3799999952316284,368.95111083984375,0.024213384836912155
2023/04/21/09:36:35.340014,1487,1682087794,640116101,,8.500075340270996,8.594459533691406,316,0.3799999952316284,368.9019775390625,-0.11740293353796005
2023/04/21/09:36:35.340770,1488,1682087794,746362738,,8.49421215057373,8.573895454406738,315,0.3799999952316284,368.8880615234375,-0.05048786476254463
2023/04/21/09:36:35.341572,1489,1682087794,846952508,,8.502659797668457,8.560747146606445,313,0.36000001430511475,368.88006591796875,-0.004887011367827654
2023/04/21/09:36:36.042899,1490,1682087794,942682652,,8.5055570602417,8.526673316955566,309,0.36000001430511475,368.8506774902344,-0.09801027923822403
2023/04/21/09:36:36.042930,1491,1682087795,234235309,,8.529911994934082,8.525126457214355,307,0.36000001430511475,368.83404541015625,-0.16997475922107697
2023/04/21/09:36:36.042953,1492,1682087795,334648911,,8.540343284606934,8.511983871459961,305,0.36000001430511475,368.80560302734375,-0.21685726940631866
2023/04/21/09:36:36.042971,1493,1682087795,343913959,,8.5847749710083,8.508687019348145,300,0.36000001430511475,368.73980712890625,-0.2826274633407593
2023/04/21/09:36:36.239770,1494,1682087795,438172567,,8.621240615844727,8.534914016723633,298,0.36000001430511475,368.7149353027344,-0.1920909583568573
2023/04/21/09:36:36.239788,1495,1682087795,537959525,,8.675868034362793,8.583489418029785,297,0.36000001430511475,368.70123291015625,-0.05900093913078308
2023/04/21/09:36:36.239808,1496,1682087795,734458920,,8.699495315551758,8.593294143676758,297,0.36000001430511475,368.69390869140625,-0.067867711186409
2023/04/21/09:36:36.239822,1497,1682087795,937870571,,8.723230361938477,8.607247352600098,299,0.36000001430511475,368.68536376953125,-0.13302190601825714
2023/04/21/09:36:36.239974,1498,1682087795,942183746,,8.757058143615723,8.639653205871582,301,0.36000001430511475,368.673828125,-0.17303965985774994
2023/04/21/09:36:36.240017,1499,1682087796,42579903,,8.761260032653809,8.665277481079102,304,0.36000001430511475,368.64874267578125,-0.02705787494778633
2023/04/21/09:36:36.639803,1500,1682087796,246779319,,8.751036643981934,8.67136287689209,305,0.36000001430511475,368.63995361328125,-0.045554839074611664
2023/04/21/09:36:36.639813,1501,1682087796,340240144,,8.72586727142334,8.656888961791992,305,0.36000001430511475,368.6283874511719,-0.018002647906541824
2023/04/21/09:36:36.738717,1502,1682087796,539711710,,8.702666282653809,8.635801315307617,304,0.36000001430511475,368.61260986328125,-0.07054532319307327
2023/04/21/09:36:36.841634,1503,1682087796,738336378,,8.67291259765625,8.6112642288208,303,0.36000001430511475,368.5888671875,-0.2042052149772644
2023/04/21/09:36:36.841653,1504,1682087796,742653222,,8.545557975769043,8.484124183654785,299,0.36000001430511475,368.52325439453125,-0.13006587326526642
2023/04/21/09:36:37.337763,1505,1682087796,843957680,,8.52645206451416,8.455012321472168,297,0.36000001430511475,368.5020751953125,-0.15897059440612793
2023/04/21/09:36:37.337776,1506,1682087797,136053618,,8.521820068359375,8.436872482299805,295,0.36000001430511475,368.4870300292969,-0.05427686125040054
2023/04/21/09:36:37.338414,1507,1682087797,241300986,,8.534896850585938,8.433221817016602,294,0.36000001430511475,368.4927062988281,0.11768168956041336
2023/04/21/09:36:37.835554,1508,1682087797,344624974,,8.426952362060547,8.293363571166992,295,0.36000001430511475,368.5179443359375,0.023551229387521744
2023/04/21/09:36:37.835578,1509,1682087797,441154975,,8.370965003967285,8.22899341583252,295,0.36000001430511475,368.5331726074219,0.156884104013443
2023/04/21/09:36:37.835664,1510,1682087797,643183591,,8.310235023498535,8.15542984008789,296,0.36000001430511475,368.5627136230469,0.3227868676185608
2023/04/21/09:36:38.135814,1511,1682087797,844025027,,8.268881797790527,8.104377746582031,297,0.36000001430511475,368.60540771484375,0.42199575901031494
2023/04/21/09:36:38.542044,1512,1682087798,134912902,,8.029974937438965,7.849062919616699,297,0.36000001430511475,368.79559326171875,0.41172540187835693
2023/04/21/09:36:38.542127,1513,1682087798,142441575,,7.985873222351074,7.806247234344482,297,0.36000001430511475,368.835693359375,0.31490105390548706
2023/04/21/09:36:38.942669,1514,1682087798,247339381,,7.939626693725586,7.753359794616699,297,0.36000001430511475,368.869873046875,0.24868403375148773
2023/04/21/09:36:38.942712,1515,1682087798,339638370,,7.910369396209717,7.721053600311279,296,0.36000001430511475,368.89239501953125,0.10593248158693314
2023/04/21/09:36:38.942798,1516,1682087798,540316857,,7.870899200439453,7.676938056945801,296,0.36000001430511475,368.9039306640625,-0.013789988122880459
2023/04/21/09:36:39.236116,1517,1682087798,747774450,,7.8360819816589355,7.639992713928223,295,0.36000001430511475,368.9032897949219,-0.1250961273908615
2023/04/21/09:36:39.236156,1518,1682087798,840776946,,7.738180637359619,7.528666019439697,294,0.36000001430511475,368.9197082519531,0.1026563048362732
2023/04/21/09:36:39.742103,1519,1682087799,139329461,,7.704424858093262,7.488055229187012,293,0.36000001430511475,368.9331970214844,0.05136557295918465
2023/04/21/09:36:39.742253,1520,1682087799,145434720,,7.683300495147705,7.457858562469482,293,0.36000001430511475,368.9464111328125,0.019595764577388763
2023/04/21/09:36:40.440428,1521,1682087799,239285537,,7.631768703460693,7.390514373779297,293,0.36000001430511475,368.95733642578125,0.0009828204056248069
2023/04/21/09:36:40.440462,1522,1682087799,434544597,,7.595142841339111,7.34644079208374,293,0.36000001430511475,368.9547119140625,-0.15014135837554932
2023/04/21/09:36:40.440495,1523,1682087799,440416639,,7.579749584197998,7.327426433563232,293,0.36000001430511475,368.9405517578125,-0.2303374707698822
2023/04/21/09:36:40.440798,1524,1682087799,634212426,,7.5396223068237305,7.281148910522461,294,0.36000001430511475,368.9193115234375,-0.2925149202346802
2023/04/21/09:36:40.440822,1525,1682087799,640631503,,7.513376712799072,7.2476396560668945,294,0.36000001430511475,368.8901062011719,-0.3714112937450409
2023/04/21/09:36:41.134263,1526,1682087799,839796482,,7.497398853302002,7.216088771820068,293,0.36000001430511475,368.8558349609375,-0.39157044887542725
2023/04/21/09:36:41.134297,1527,1682087799,934425308,,7.485754489898682,7.205116271972656,293,0.36000001430511475,368.8123779296875,-0.5651212930679321
2023/04/21/09:36:41.134321,1528,1682087800,235772813,,7.465837478637695,7.179466724395752,292,0.36000001430511475,368.7540283203125,-0.6033666729927063
2023/04/21/09:36:41.134343,1529,1682087800,338367381,,7.453854084014893,7.148350238800049,289,0.36000001430511475,368.58026123046875,-0.6366791725158691
2023/04/21/09:36:41.134366,1530,1682087800,440092478,,7.4740214347839355,7.157627582550049,289,0.36000001430511475,368.50396728515625,-0.7022927403450012
2023/04/21/09:36:41.635700,1531,1682087800,737648437,,7.498142719268799,7.174907684326172,289,0.36000001430511475,368.4415283203125,-0.7212778925895691
2023/04/21/09:36:41.635777,1532,1682087801,37313407,,7.510830879211426,7.180726051330566,290,0.36000001430511475,368.369384765625,-0.7492561936378479
2023/04/21/09:36:42.142983,1533,1682087801,141626091,,7.588947296142578,7.281641483306885,290,0.36000001430511475,368.02618408203125,-0.6094728112220764
2023/04/21/09:36:42.143031,1534,1682087801,345147210,,7.60618782043457,7.294017791748047,290,0.36000001430511475,367.9615478515625,-0.6306927800178528
2023/04/21/09:36:42.143057,1535,1682087801,348726284,,7.6203765869140625,7.312300682067871,290,0.36000001430511475,367.8918762207031,-0.5859110355377197
2023/04/21/09:36:42.541494,1536,1682087801,636645119,,7.623440265655518,7.314126491546631,287,0.36000001430511475,367.71929931640625,-0.5750364661216736
2023/04/21/09:36:42.542311,1537,1682087801,834951065,,7.632031440734863,7.3167314529418945,286,0.36000001430511475,367.66204833984375,-0.5876721143722534
2023/04/21/09:36:43.154499,1538,1682087802,141959600,,7.643187046051025,7.314610004425049,285,0.36000001430511475,367.5992431640625,-0.6765586733818054
2023/04/21/09:36:43.154523,1539,1682087802,233986294,,7.70657205581665,7.363840579986572,286,0.36000001430511475,367.335693359375,-0.6809638142585754
2023/04/21/09:36:43.154544,1540,1682087802,334006218,,7.7234392166137695,7.391340255737305,287,0.36000001430511475,367.2802734375,-0.5492404103279114
2023/04/21/09:36:43.154707,1541,1682087802,433996091,,7.725314617156982,7.400742530822754,287,0.36000001430511475,367.23974609375,-0.391946405172348
2023/04/21/09:36:43.154869,1542,1682087802,444903820,,7.723193168640137,7.4044013023376465,288,0.36000001430511475,367.20965576171875,-0.33004388213157654
2023/04/21/09:36:43.234093,1543,1682087802,539840952,,7.711142063140869,7.391351699829102,288,0.36000001430511475,367.1806945800781,-0.2997925579547882
2023/04/21/09:36:44.034983,1544,1682087802,735115493,,7.702789306640625,7.380098342895508,288,0.36000001430511475,367.1539611816406,-0.22950230538845062
2023/04/21/09:36:44.035022,1545,1682087802,834271248,,7.685222625732422,7.3748674392700195,288,0.36000001430511475,367.1339111328125,-0.2337956428527832
2023/04/21/09:36:44.035093,1546,1682087802,944261113,,7.659818649291992,7.350490093231201,287,0.36000001430511475,367.1100769042969,-0.19658395648002625
2023/04/21/09:36:44.035161,1547,1682087803,244217799,,7.654946327209473,7.346339225769043,287,0.36000001430511475,367.0930480957031,-0.15215744078159332
2023/04/21/09:36:44.035198,1548,1682087803,435326938,,7.647332191467285,7.335694789886475,286,0.36000001430511475,367.0770263671875,-0.07957746088504791
2023/04/21/09:36:44.035239,1549,1682087803,446016491,,7.519164562225342,7.191702365875244,284,0.36000001430511475,367.0167541503906,-0.3819248080253601
2023/04/21/09:36:44.734865,1550,1682087803,634038947,,7.4739179611206055,7.131466388702393,284,0.36000001430511475,366.9768981933594,-0.5628295540809631
2023/04/21/09:36:44.734877,1551,1682087803,734757524,,7.4444732666015625,7.095108985900879,284,0.36000001430511475,366.92584228515625,-0.5819677114486694
2023/04/21/09:36:44.734888,1552,1682087803,839560063,,7.400601387023926,7.051063537597656,285,0.36000001430511475,366.876953125,-0.6039503812789917
2023/04/21/09:36:44.735006,1553,1682087803,942405787,,7.368484973907471,7.0259552001953125,286,0.36000001430511475,366.8247375488281,-0.5765989422798157
2023/04/21/09:36:44.735019,1554,1682087804,44955405,,7.332113265991211,6.991120338439941,287,0.36000001430511475,366.77447509765625,-0.5300421118736267
2023/04/21/09:36:44.735033,1555,1682087804,137292206,,7.300688743591309,6.972755432128906,288,0.36000001430511475,366.72882080078125,-0.44229361414909363
2023/04/21/09:36:44.735081,1556,1682087804,235290913,,7.254117012023926,6.940710544586182,288,0.36000001430511475,366.695068359375,-0.2573205530643463
2023/04/21/09:36:45.036956,1557,1682087804,436048623,,7.236378192901611,6.930256366729736,288,0.36000001430511475,366.6712951660156,-0.2723681926727295
2023/04/21/09:36:45.036975,1558,1682087804,544587804,,7.228543281555176,6.912286758422852,287,0.36000001430511475,366.6351013183594,-0.37918204069137573
2023/04/21/09:36:45.036992,1559,1682087804,635281094,,7.194265842437744,6.885360240936279,284,0.36000001430511475,366.54180908203125,-0.45534875988960266
2023/04/21/09:36:45.136355,1560,1682087804,654462470,,7.170982837677002,6.846846103668213,283,0.36000001430511475,366.49444580078125,-0.5392146110534668
2023/04/21/09:36:45.136368,1561,1682087804,834946184,,7.14299201965332,6.814035892486572,282,0.36000001430511475,366.4351806640625,-0.5941116809844971
2023/04/21/09:36:45.238495,1562,1682087804,938953212,,7.108280181884766,6.77601432800293,281,0.36000001430511475,366.37725830078125,-0.5669894814491272
2023/04/21/09:36:45.334028,1563,1682087805,138033795,,7.102479934692383,6.767559051513672,281,0.36000001430511475,366.32501220703125,-0.5860030055046082
2023/04/21/09:36:45.334042,1564,1682087805,144703784,,7.073711395263672,6.734334468841553,280,0.36000001430511475,366.27154541015625,-0.5794788599014282
2023/04/21/09:36:45.538632,1565,1682087805,347900718,,7.013617515563965,6.697931289672852,283,0.36000001430511475,366.1753234863281,-0.2531350255012512
2023/04/21/09:36:45.834612,1566,1682087805,535434366,,6.996588230133057,6.688327789306641,285,0.36000001430511475,366.15252685546875,-0.27592796087265015
2023/04/21/09:36:45.834717,1567,1682087805,634747777,,6.964534282684326,6.663579940795898,285,0.36000001430511475,366.1276550292969,-0.27819159626960754
2023/04/21/09:36:45.848563,1568,1682087805,735305351,,6.9451823234558105,6.6467084884643555,285,0.36000001430511475,366.1068115234375,-0.21227554976940155
2023/04/21/09:36:46.137462,1569,1682087805,835140399,,6.900130271911621,6.599620342254639,284,0.36000001430511475,366.0871887207031,-0.18003487586975098
2023/04/21/09:36:46.137589,1570,1682087805,842988855,,6.859039306640625,6.560131549835205,282,0.36000001430511475,366.0638732910156,-0.29179897904396057
2023/04/21/09:36:46.434720,1571,1682087805,944113409,,6.809389114379883,6.505747318267822,281,0.36000001430511475,366.0360412597656,-0.29894664883613586
2023/04/21/09:36:46.434744,1572,1682087806,134026529,,6.767836570739746,6.459117412567139,279,0.36000001430511475,366.01300048828125,-0.3244227468967438
2023/04/21/09:36:46.638588,1573,1682087806,233909670,,6.731424331665039,6.414789199829102,278,0.36000001430511475,365.9820556640625,-0.4012768268585205
2023/04/21/09:36:46.639649,1574,1682087806,245382993,,6.699864864349365,6.376376628875732,277,0.36000001430511475,365.9440612792969,-0.4401549994945526
2023/04/21/09:36:46.846761,1575,1682087806,434432026,,6.669384002685547,6.341415882110596,276,0.36000001430511475,365.90325927734375,-0.4549379348754883
2023/04/21/09:36:46.846780,1576,1682087806,535678574,,6.636664867401123,6.3006415367126465,275,0.36000001430511475,365.8586120605469,-0.500620424747467
2023/04/21/09:36:46.846793,1577,1682087806,638169042,,6.63152551651001,6.290213108062744,275,0.36000001430511475,365.8110046386719,-0.5409295558929443
2023/04/21/09:36:47.046044,1578,1682087806,735224846,,6.614890098571777,6.270650386810303,275,0.36000001430511475,365.76312255859375,-0.5460523962974548
2023/04/21/09:36:47.046057,1579,1682087806,833950023,,6.606109619140625,6.261063098907471,275,0.36000001430511475,365.7176818847656,-0.5290190577507019
2023/04/21/09:36:47.046067,1580,1682087806,847784060,,6.6088480949401855,6.2666120529174805,275,0.36000001430511475,365.6757507324219,-0.48679429292678833
2023/04/21/09:36:47.046153,1581,1682087807,34565351,,6.6111907958984375,6.272769927978516,275,0.36000001430511475,365.6329650878906,-0.4832712411880493
2023/04/21/09:36:47.235770,1582,1682087807,134108952,,6.614256858825684,6.287326812744141,275,0.36000001430511475,365.58868408203125,-0.43053340911865234
2023/04/21/09:36:47.235784,1583,1682087807,155958614,,6.614305019378662,6.279473304748535,275,0.36000001430511475,365.55426025390625,-0.4025343954563141
2023/04/21/09:36:47.435068,1584,1682087807,247071561,,6.621387481689453,6.288758754730225,275,0.36000001430511475,365.517822265625,-0.401480108499527
2023/04/21/09:36:47.439463,1585,1682087807,354072930,,6.61975622177124,6.289839267730713,274,0.36000001430511475,365.48138427734375,-0.37153151631355286
2023/04/21/09:36:47.534955,1586,1682087807,447266588,,6.615633487701416,6.2835893630981445,273,0.36000001430511475,365.44354248046875,-0.3994324207305908
2023/04/21/09:36:47.546988,1587,1682087807,546265821,,6.63256311416626,6.299288272857666,272,0.36000001430511475,365.4013977050781,-0.4376453459262848
2023/04/21/09:36:47.736573,1588,1682087807,734731403,,6.649110794067383,6.317832946777344,272,0.36000001430511475,365.3579406738281,-0.4113040566444397
2023/04/21/09:36:47.848041,1589,1682087807,834992313,,6.65134334564209,6.3172149658203125,271,0.36000001430511475,365.31378173828125,-0.4553789794445038
2023/04/21/09:36:48.035168,1590,1682087807,934612244,,6.657141208648682,6.317142486572266,271,0.36000001430511475,365.26300048828125,-0.5332464575767517
2023/04/21/09:36:48.141966,1591,1682087808,34594583,,6.650885105133057,6.314501762390137,271,0.36000001430511475,365.2119140625,-0.49743375182151794
2023/04/21/09:36:48.142719,1592,1682087808,134788071,,6.664219379425049,6.33868408203125,272,0.36000001430511475,365.1719665527344,-0.38320687413215637
2023/04/21/09:36:48.249163,1593,1682087808,235667357,,6.6832451820373535,6.367635726928711,272,0.36000001430511475,365.1454162597656,-0.26889872550964355
2023/04/21/09:36:48.442273,1594,1682087808,334232422,,6.693022727966309,6.378517150878906,272,0.36000001430511475,365.12542724609375,-0.25403380393981934
2023/04/21/09:36:48.442336,1595,1682087808,435430389,,6.6956939697265625,6.381653308868408,272,0.36000001430511475,365.099609375,-0.32971009612083435
2023/04/21/09:36:48.541280,1596,1682087808,534078030,,6.693007946014404,6.382195472717285,271,0.36000001430511475,365.07318115234375,-0.3251834213733673
2023/04/21/09:36:48.642768,1597,1682087808,634679801,,6.685492515563965,6.374296188354492,270,0.36000001430511475,365.046142578125,-0.28094929456710815
2023/04/21/09:36:48.735749,1598,1682087808,646521429,,6.677780628204346,6.369546890258789,269,0.36000001430511475,365.0233154296875,-0.3016994297504425
2023/04/21/09:36:48.938254,1599,1682087808,834391045,,6.661637783050537,6.34888219833374,269,0.36000001430511475,364.9907531738281,-0.4193492829799652
2023/04/21/09:36:49.035122,1600,1682087808,934915874,,6.647916793823242,6.32966423034668,269,0.36000001430511475,364.9512939453125,-0.46146321296691895
2023/04/21/09:36:49.138780,1601,1682087809,36050927,,6.614455223083496,6.307353496551514,270,0.36000001430511475,364.91278076171875,-0.41270318627357483
2023/04/21/09:36:49.138932,1602,1682087809,134375175,,6.5891008377075195,6.276832103729248,270,0.36000001430511475,364.87591552734375,-0.46777480840682983
2023/04/21/09:36:49.535249,1603,1682087809,161520735,,6.588335990905762,6.267527103424072,271,0.36000001430511475,364.828125,-0.5782809853553772
2023/04/21/09:36:49.535427,1604,1682087809,336287760,,6.565018177032471,6.251513957977295,272,0.36000001430511475,364.7733154296875,-0.5918362140655518
2023/04/21/09:36:49.535453,1605,1682087809,349751934,,6.547084808349609,6.220171928405762,272,0.36000001430511475,364.7203369140625,-0.6617633700370789
2023/04/21/09:36:50.842640,1606,1682087809,541126051,,6.51393461227417,6.2024664878845215,272,0.36000001430511475,364.65960693359375,-0.5039357542991638
2023/04/21/09:36:50.842676,1607,1682087809,637199084,,6.492936611175537,6.194677829742432,271,0.36000001430511475,364.62225341796875,-0.31347981095314026
2023/04/21/09:36:50.843266,1608,1682087809,736688464,,6.506323337554932,6.214992523193359,269,0.36000001430511475,364.6029052734375,-0.14946456253528595
2023/04/21/09:36:50.843295,1609,1682087809,835935888,,6.507541656494141,6.218128681182861,267,0.36000001430511475,364.59344482421875,-0.07403125613927841
2023/04/21/09:36:50.844993,1610,1682087809,938528355,,6.5235466957092285,6.234846115112305,266,0.36000001430511475,364.5861511230469,-0.09019430726766586
2023/04/21/09:36:50.845247,1611,1682087810,36810306,,6.514292240142822,6.225039482116699,265,0.36000001430511475,364.5798034667969,-0.1402273327112198
2023/04/21/09:36:50.845296,1612,1682087810,48206630,,6.495666980743408,6.200058937072754,264,0.36000001430511475,364.56353759765625,-0.2934200167655945
2023/04/21/09:36:50.845322,1613,1682087810,237026584,,6.475772380828857,6.173357009887695,264,0.36000001430511475,364.53656005859375,-0.4271434247493744
2023/04/21/09:36:50.845345,1614,1682087810,255293247,,6.449880123138428,6.130705833435059,263,0.36000001430511475,364.4931640625,-0.6282127499580383
2023/04/21/09:36:50.845380,1615,1682087810,438182808,,6.43050479888916,6.095550537109375,263,0.36000001430511475,364.4327392578125,-0.7666298747062683
2023/04/21/09:36:50.845419,1616,1682087810,537253305,,6.406949043273926,6.059728145599365,263,0.36000001430511475,364.3600158691406,-0.8314291834831238
2023/04/21/09:36:50.845444,1617,1682087810,634531134,,6.3918585777282715,6.026013374328613,262,0.36000001430511475,364.28369140625,-0.9741396903991699
2023/04/21/09:36:50.845477,1618,1682087810,745999678,,6.37740421295166,6.008144378662109,262,0.36000001430511475,364.2024230957031,-1.046075463294983
2023/04/21/09:36:53.836514,1619,1682087810,844977817,,6.366209983825684,5.992084503173828,262,0.36000001430511475,364.1068420410156,-1.0846740007400513
2023/04/21/09:36:53.836595,1620,1682087810,942502750,,6.360297679901123,5.985805511474609,262,0.36000001430511475,364.00897216796875,-1.0941083431243896
2023/04/21/09:36:53.836626,1621,1682087811,44896252,,6.354819297790527,5.978021144866943,262,0.36000001430511475,363.90740966796875,-1.120632290840149
2023/04/21/09:36:53.836800,1622,1682087811,144942810,,6.373116970062256,5.991321086883545,262,0.36000001430511475,363.79998779296875,-1.1661311388015747
2023/04/21/09:36:53.837009,1623,1682087811,163028510,,6.383558750152588,6.002218246459961,263,0.36000001430511475,363.68865966796875,-1.1909453868865967
2023/04/21/09:36:53.837046,1624,1682087811,335100377,,6.392426013946533,6.01293420791626,263,0.36000001430511475,363.571044921875,-1.1840440034866333
2023/04/21/09:36:53.837070,1625,1682087811,434330263,,6.40040922164917,6.041617393493652,263,0.36000001430511475,363.46343994140625,-1.1240713596343994
2023/04/21/09:36:53.837118,1626,1682087811,534817082,,6.4097514152526855,6.06556510925293,263,0.36000001430511475,363.35992431640625,-1.0504363775253296
2023/04/21/09:36:53.837155,1627,1682087811,637490360,,6.414810657501221,6.088138580322266,263,0.36000001430511475,363.2644348144531,-0.9728897213935852
2023/04/21/09:36:53.837179,1628,1682087811,736769251,,6.4436774253845215,6.1295857429504395,263,0.36000001430511475,363.1775207519531,-0.9385418891906738
2023/04/21/09:36:53.837244,1629,1682087811,842900898,,6.457788944244385,6.14887809753418,262,0.36000001430511475,363.0892028808594,-0.9488382935523987
2023/04/21/09:36:53.837292,1630,1682087811,946944336,,6.469851493835449,6.160138130187988,261,0.36000001430511475,362.9963684082031,-0.9776708483695984
2023/04/21/09:36:53.837366,1631,1682087812,234345169,,6.484547138214111,6.20156192779541,261,0.36000001430511475,362.81646728515625,-0.8821062445640564
2023/04/21/09:36:53.837391,1632,1682087812,435843101,,6.489405632019043,6.220615386962891,260,0.36000001430511475,362.7379455566406,-0.8065505623817444
2023/04/21/09:36:53.837626,1633,1682087812,537582262,,6.502316474914551,6.250338554382324,260,0.36000001430511475,362.53460693359375,-0.7619155049324036
2023/04/21/09:36:53.837912,1634,1682087812,638676299,,6.492071628570557,6.247035980224609,259,0.36000001430511475,362.4637451171875,-0.7586342692375183
2023/04/21/09:36:53.837940,1635,1682087812,736569365,,6.489309310913086,6.247865676879883,258,0.36000001430511475,362.3912658691406,-0.7868260741233826
2023/04/21/09:36:53.837964,1636,1682087812,939369592,,6.483417510986328,6.24948787689209,256,0.36000001430511475,362.3202209472656,-0.7788373827934265
2023/04/21/09:36:53.838003,1637,1682087813,44315172,,6.46500301361084,6.237808704376221,255,0.36000001430511475,362.2484436035156,-0.7769473791122437
2023/04/21/09:36:53.838029,1638,1682087813,141622377,,6.458933353424072,6.2458109855651855,253,0.36000001430511475,362.1066589355469,-0.7986199855804443
2023/04/21/09:36:53.838107,1639,1682087813,237015525,,6.471599102020264,6.25861120223999,253,0.36000001430511475,362.03302001953125,-0.8919766545295715
2023/04/21/09:36:55.137448,1640,1682087813,341354604,,6.4792914390563965,6.26770544052124,254,0.36000001430511475,361.948486328125,-0.9459327459335327
2023/04/21/09:36:55.137676,1641,1682087813,435936749,,6.542291641235352,6.339321136474609,256,0.36000001430511475,361.8627014160156,-0.9706176519393921
2023/04/21/09:36:55.137700,1642,1682087813,545575179,,6.613194942474365,6.446037769317627,257,0.36000001430511475,361.7735595703125,-0.968677818775177
2023/04/21/09:36:55.137789,1643,1682087813,735881460,,6.678774356842041,6.5602707862854,255,0.36000001430511475,361.6806945800781,-0.9394108653068542
2023/04/21/09:36:55.137825,1644,1682087813,741509891,,6.764222621917725,6.712474822998047,251,0.36000001430511475,361.5887451171875,-0.8532475829124451
2023/04/21/09:36:55.140872,1645,1682087813,940203914,,7.036154747009277,7.142003536224365,238,0.36000001430511475,361.4253234863281,-0.6426256895065308
2023/04/21/09:36:55.141070,1646,1682087814,44464755,,7.22650146484375,7.387492656707764,230,0.36000001430511475,361.350341796875,-0.629898726940155
2023/04/21/09:36:55.141099,1647,1682087814,235010813,,7.47161340713501,7.675408840179443,222,0.36000001430511475,361.2795104980469,-0.6250144243240356
2023/04/21/09:36:55.141320,1648,1682087814,346843902,,7.656556129455566,7.980023384094238,215,0.36000001430511475,361.2130126953125,-0.6645592451095581
2023/04/21/09:36:55.740601,1649,1682087814,542628739,,7.891528606414795,8.266651153564453,208,0.36000001430511475,361.1416015625,-0.7963717579841614
2023/04/21/09:36:55.740629,1650,1682087814,739885805,,8.773782730102539,9.342509269714355,191,0.36000001430511475,360.7491760253906,-1.4740244150161743
2023/04/21/09:36:55.743837,1651,1682087814,844712229,,9.001781463623047,9.597776412963867,189,0.36000001430511475,360.62310791015625,-1.6096514463424683
2023/04/21/09:36:56.142287,1652,1682087815,138413228,,9.23438835144043,9.853971481323242,188,0.36000001430511475,360.48602294921875,-1.724529504776001
2023/04/21/09:36:56.142378,1653,1682087815,143549018,,9.46169376373291,10.105768203735352,186,0.36000001430511475,360.33697509765625,-1.8264830112457275
2023/04/21/09:36:56.142457,1654,1682087815,336277673,,10.13166618347168,10.922755241394043,180,0.36000001430511475,359.8316650390625,-1.9282784461975098
2023/04/21/09:36:56.142529,1655,1682087815,440264494,,10.373379707336426,11.216102600097656,178,0.36000001430511475,359.6492004394531,-1.9959672689437866
2023/04/21/09:36:56.439147,1656,1682087815,636225350,,10.631616592407227,11.541543006896973,175,0.36000001430511475,359.43603515625,-2.052022933959961
2023/04/21/09:36:56.442112,1657,1682087815,644748868,,10.83555793762207,11.748307228088379,172,0.36000001430511475,359.2474060058594,-2.189419984817505
2023/04/21/09:36:56.442261,1658,1682087815,738130927,,11.040107727050781,11.96216106414795,168,0.36000001430511475,359.0292663574219,-2.3077950477600098
2023/04/21/09:36:56.442272,1659,1682087815,950960386,,11.209901809692383,12.174488067626953,164,0.3400000035762787,358.77947998046875,-2.3891611099243164
2023/04/21/09:36:56.442375,1660,1682087816,44624427,,11.348851203918457,12.323396682739258,161,0.33000001311302185,358.570556640625,-2.423724889755249
2023/04/21/09:36:56.538322,1661,1682087816,334467906,,11.750244140625,12.839378356933594,160,0.33000001311302185,357.70562744140625,-2.159623146057129
2023/04/21/09:36:56.538373,1662,1682087816,435279665,,11.826353073120117,12.93478012084961,162,0.33000001311302185,357.51348876953125,-2.1162939071655273
2023/04/21/09:36:56.645070,1663,1682087816,534268371,,11.879439353942871,13.015009880065918,164,0.33000001311302185,357.3206787109375,-2.028984546661377
2023/04/21/09:36:56.742660,1664,1682087816,638705072,,11.928166389465332,13.092877388000488,166,0.33000001311302185,357.143310546875,-1.8696972131729126
2023/04/21/09:36:56.941265,1665,1682087816,735306802,,11.972939491271973,13.16748332977295,169,0.33000001311302185,356.98248291015625,-1.680903434753418
2023/04/21/09:36:56.941277,1666,1682087816,771771269,,12.014873504638672,13.247705459594727,171,0.33000001311302185,356.82232666015625,-1.5198124647140503
2023/04/21/09:36:57.043049,1667,1682087816,934514100,,12.039873123168945,13.2836332321167,172,0.33000001311302185,356.6952819824219,-1.463472604751587
2023/04/21/09:36:57.133989,1668,1682087817,34607454,,12.06338882446289,13.338881492614746,172,0.33000001311302185,356.54876708984375,-1.3705987930297852
2023/04/21/09:36:57.138790,1669,1682087817,136960675,,12.082721710205078,13.380106925964355,172,0.33000001311302185,356.42669677734375,-1.2715229988098145
2023/04/21/09:36:57.437603,1670,1682087817,235512863,,12.107088088989258,13.430282592773438,171,0.33000001311302185,356.320556640625,-1.1960618495941162
2023/04/21/09:36:57.437622,1671,1682087817,336526082,,12.128457069396973,13.476789474487305,170,0.33000001311302185,356.199951171875,-1.1162922382354736
2023/04/21/09:36:57.943719,1672,1682087817,435070801,,12.151167869567871,13.52625560760498,167,0.33000001311302185,356.10333251953125,-1.0736327171325684
2023/04/21/09:36:57.943734,1673,1682087817,534116760,,12.165811538696289,13.56679916381836,164,0.33000001311302185,355.9989929199219,-1.0408765077590942
2023/04/21/09:36:57.943745,1674,1682087817,635014523,,12.17621898651123,13.607661247253418,160,0.33000001311302185,355.9019775390625,-0.984127402305603
2023/04/21/09:36:57.944162,1675,1682087817,734201307,,12.17780876159668,13.632512092590332,155,0.33000001311302185,355.814697265625,-0.9854127168655396
2023/04/21/09:36:57.944239,1676,1682087817,833848967,,12.183494567871094,13.654739379882812,152,0.33000001311302185,355.7344665527344,-1.0181398391723633
2023/04/21/09:36:58.034621,1677,1682087817,852447332,,12.167308807373047,13.660283088684082,148,0.33000001311302185,355.6455078125,-1.0119409561157227
2023/04/21/09:36:58.144241,1678,1682087818,35504219,,12.165721893310547,13.671573638916016,146,0.33000001311302185,355.5550842285156,-1.0371135473251343
2023/04/21/09:36:58.838845,1679,1682087818,138458556,,12.14969253540039,13.680978775024414,145,0.33000001311302185,355.4756164550781,-1.0466445684432983
2023/04/21/09:36:58.838865,1680,1682087818,239052954,,12.140169143676758,13.681490898132324,145,0.33000001311302185,355.40673828125,-1.0121270418167114
2023/04/21/09:36:58.838883,1681,1682087818,338073645,,12.126099586486816,13.677342414855957,146,0.33000001311302185,355.33013916015625,-1.0638314485549927
2023/04/21/09:36:58.838977,1682,1682087818,437423424,,12.113707542419434,13.658863067626953,148,0.33000001311302185,355.2333068847656,-1.1889662742614746
2023/04/21/09:36:58.838990,1683,1682087818,535748522,,12.09499454498291,13.641045570373535,149,0.33000001311302185,355.1461486816406,-1.2494763135910034
2023/04/21/09:36:59.237166,1684,1682087818,635914351,,12.072503089904785,13.622130393981934,151,0.33000001311302185,355.04632568359375,-1.173149585723877
2023/04/21/09:36:59.237422,1685,1682087818,741452604,,12.036641120910645,13.589554786682129,153,0.33000001311302185,354.9473876953125,-1.129188060760498
2023/04/21/09:36:59.638473,1686,1682087818,935029846,,12.031993865966797,13.579830169677734,154,0.33000001311302185,354.8465576171875,-1.1459400653839111
2023/04/21/09:36:59.638485,1687,1682087818,944516361,,12.008319854736328,13.559553146362305,156,0.33000001311302185,354.74481201171875,-1.1186702251434326
2023/04/21/09:36:59.638570,1688,1682087819,134578296,,11.945563316345215,13.50140380859375,159,0.33000001311302185,354.5903625488281,-0.5957943201065063
2023/04/21/09:36:59.638589,1689,1682087819,235277125,,11.901412963867188,13.435578346252441,161,0.33000001311302185,354.5437927246094,-0.443083256483078
2023/04/21/09:37:00.037303,1690,1682087819,336705987,,11.806113243103027,13.33018970489502,162,0.33000001311302185,354.5066833496094,-0.4125738739967346
2023/04/21/09:37:00.037319,1691,1682087819,444190181,,11.700339317321777,13.203530311584473,163,0.33000001311302185,354.4765930175781,-0.3643414378166199
2023/04/21/09:37:00.037338,1692,1682087819,537358266,,11.593769073486328,13.069297790527344,163,0.33000001311302185,354.4390869140625,-0.5919929146766663
2023/04/21/09:37:00.037355,1693,1682087819,635509054,,11.499895095825195,12.95578384399414,164,0.33000001311302185,354.38165283203125,-0.7503384947776794
2023/04/21/09:37:00.538948,1694,1682087819,734450308,,11.4137544631958,12.858502388000488,164,0.33000001311302185,354.32476806640625,-0.7505699992179871
2023/04/21/09:37:00.539228,1695,1682087819,837179997,,11.310425758361816,12.750224113464355,164,0.33000001311302185,354.2633361816406,-0.7065991759300232
2023/04/21/09:37:00.539272,1696,1682087819,933905038,,11.238842964172363,12.66537094116211,164,0.33000001311302185,354.19488525390625,-0.8987451195716858
2023/04/21/09:37:00.539288,1697,1682087820,39162256,,11.187355041503906,12.609589576721191,164,0.33000001311302185,354.1112365722656,-0.9559544920921326
